~VERSION INFORMATION
 VERS.                          2.0 :CWLS LOG ASCII STANDARD [logix (c) Softland]
 WRAP.                          NO  : ONE LINE PER DEPTH STEP
~WELL INFORMATION
#MNEM.UNIT           DATA                         :DESCRIPTION
#----.----           ----------                      ----------------
 STRT.M    4.000                                   :START DEPTH
 STOP.M  656.000                                   :STOP  DEPTH
 STEP.M 0.200                                      :STEP
 NULL.  -99999.000                                 :NULL VALUE
 ALT.M    0.000                                    :KB or GL
 COMP.  Нефтяная компания                          :OIL COMPANY
 WELL.  65                                         :WELL
 FLD .  прямое                                     :FIELD
 LOC .                                             :LOCATION
 CTRY.                                             :COUNTRY
 SRVC.                                             :SERVICE COMPANY
 DATE.                                             :DATE
 API .                                             :API NUMBER
 UWI .                                             :UNIVERSAL WELL INDEX
~Curve Information Section
#MNEM.UNIT           API CODE                       Curve Description
#----.----           ----------                      ----------------
 DEPT.M                       :
 PZ.OHMM                            :
 GZ3.OHMM                            :
 PS.MV                            :
~A DEPT PZ.OHMM GZ3.OHMM PS.MV
# ...
 214.800  3.397    3.429    36.410   
 215.000  3.484    3.428    36.398   
 215.200  3.534    3.369    36.377   
 215.400  3.548    3.394    36.228   
 215.600  3.516    3.360    36.335   
 215.800  3.545    3.360    36.228   
 216.000  3.581    3.403    36.167   
 216.200  3.581    3.462    35.935   
 216.400  3.581    3.529    35.978   
 216.600  3.581    3.566    36.102   
 216.800  3.597    3.631    35.978   
 217.000  3.581    3.642    35.978   
 217.200  3.581    3.665    36.103   
 217.400  3.548    3.631    36.103   
 217.600  3.516    3.563    35.978   
 217.800  3.484    3.503    36.228   
 218.000  3.484    3.495    35.978   
 218.200  3.581    3.529    35.978   
 218.400  3.499    3.495    36.044   
 218.600  3.581    3.504    36.103   
 218.800  3.613    3.495    35.978   
 219.000  3.613    3.529    35.978   
 219.200  3.613    3.563    35.729   
 219.400  3.645    3.563    35.776   
 219.600  3.677    3.535    35.785   
 219.800  3.710    3.529    35.818   
 220.000  3.742    3.462    35.729   
 220.200  3.710    3.462    35.978   
 220.400  3.774    3.428    36.131   
 220.600  3.677    3.394    36.103   
 220.800  3.613    3.411    36.103   
 221.000  3.613    3.428    36.228   
 221.200  3.581    3.462    35.865   
 221.400  3.548    3.529    35.988   
 221.600  3.594    3.563    35.729   
 221.800  3.613    3.563    35.676   
 222.000  3.581    3.488    35.655   
 222.200  3.516    3.484    35.509   
 222.400  3.613    3.462    35.230   
 222.600  3.645    3.394    35.242   
 222.800  3.618    3.417    35.230   
 223.000  3.677    3.366    35.354   
 223.200  3.645    3.360    35.278   
 223.400  3.629    3.326    35.230   
 223.600  3.613    3.360    35.354   
 223.800  3.645    3.428    35.354   
 224.000  3.677    3.495    35.604   
 224.200  3.742    3.547    35.354   
 224.400  3.673    3.563    35.433   
 224.600  3.653    3.597    35.604   
 224.800  3.786    3.597    35.354   
 225.000  3.951    3.529    35.354   
 225.200  4.065    3.529    35.393   
 225.400  4.041    3.502    35.479   
 225.600  3.811    3.529    35.479   
 225.800  3.582    3.495    35.729   
 226.000  3.481    3.529    35.729   
 226.200  3.426    3.529    35.853   
 226.400  3.559    3.529    35.853   
 226.600  3.645    3.560    36.040   
 226.800  3.710    3.461    35.978   
 227.000  3.710    3.428    36.103   
 227.200  3.651    3.360    36.225   
 227.400  3.453    3.326    36.079   
 227.600  3.452    3.342    35.853   
 227.800  3.458    3.394    35.853   
 228.000  3.526    3.452    35.604   
 228.200  3.677    3.558    35.604   
 228.400  3.660    3.596    35.479   
 228.600  3.645    3.527    35.453   
 228.800  3.677    3.421    35.402   
 229.000  3.613    3.394    35.298   
 229.200  3.645    3.360    35.265   
 229.400  3.613    3.378    35.230   
 229.600  3.622    3.450    35.479   
 229.800  3.581    3.402    35.383   
 230.000  3.597    3.364    35.729   
 230.200  3.666    3.292    35.800   
 230.400  3.710    3.465    35.729   
 230.600  3.742    3.605    35.842   
 230.800  3.677    3.721    35.364   
 231.000  3.738    3.446    35.572   
 231.200  3.847    3.108    35.354   
 231.400  4.238    2.929    35.428   
 231.600  4.323    2.851    35.509   
 231.800  4.238    2.955    35.354   
 232.000  3.935    3.226    35.492   
 232.200  3.714    3.433    35.513   
 232.400  3.710    3.529    35.604   
 232.600  3.745    3.462    35.978   
 232.800  3.742    3.479    35.978   
 233.000  3.795    3.462    36.222   
 233.200  3.677    3.495    36.337   
 233.400  3.659    3.432    36.140   
 233.600  3.581    3.326    36.294   
 233.800  3.516    3.295    35.899   
 234.000  3.453    3.401    35.954   
 234.200  3.454    3.416    35.856   
 234.400  3.555    3.277    35.996   
 234.600  3.538    3.190    36.352   
 234.800  3.548    3.122    36.164   
 235.000  3.548    3.122    36.477   
 235.200  3.602    3.156    36.456   
 235.400  3.703    3.292    36.602   
 235.600  3.677    3.365    36.477   
 235.800  3.613    3.462    36.352   
 236.000  3.581    3.462    36.041   
 236.200  3.645    3.411    36.018   
 236.400  3.729    3.373    36.209   
 236.600  3.628    3.326    36.851   
 236.800  3.613    3.354    36.875   
 237.000  3.556    3.360    36.976   
 237.200  3.484    3.391    37.042   
 237.400  3.420    3.360    36.976   
 237.600  3.682    3.394    37.209   
 237.800  3.806    3.311    37.350   
 238.000  3.883    3.208    37.350   
 238.200  4.274    3.111    37.350   
 238.400  4.633    3.122    38.542   
 238.600  4.525    3.088    40.310   
 238.800  3.935    3.122    42.354   
 239.000  3.893    3.398    43.346   
 239.200  3.412    3.673    42.062   
 239.400  4.178    3.847    38.548   
 239.600  4.943    3.953    37.154   
 239.800  5.708    4.059    37.101   
 240.000  6.473    4.504    37.350   
 240.200  6.946    4.949    36.103   
 240.400  6.426    5.088    35.978   
 240.600  5.972    5.194    35.925   
 240.800  5.689    4.881    36.228   
 241.000  6.158    4.639    36.074   
 241.200  6.530    4.194    37.226   
 241.400  6.026    3.903    38.210   
 241.600  5.523    4.072    37.226   
 241.800  5.019    4.038    38.667   
 242.000  5.412    5.306    40.920   
 242.200  6.461    5.835    42.314   
 242.400  7.510    5.317    42.460   
 242.600  8.558    4.795    40.013   
 242.800  8.000    4.272    35.408   
 243.000  6.856    3.750    35.979   
 243.200  5.712    3.228    36.550   
 243.400  4.733    3.349    36.976   
 243.600  4.381    3.434    36.854   
 243.800  4.555    3.459    35.959   
 244.000  4.771    3.834    35.813   
 244.200  4.555    3.626    35.792   
 244.400  4.376    3.197    36.228   
 244.600  4.197    3.282    36.331   
 244.800  4.048    3.367    37.350   
 245.000  3.915    3.451    37.871   
 245.200  4.282    4.555    37.974   
 245.400  4.318    5.801    37.661   
 245.600  4.516    7.046    37.141   
 245.800  6.196    6.097    37.082   
 246.000  7.371    5.126    36.979   
 246.200  8.612    4.155    37.101   
 246.400  8.040    3.745    36.976   
 246.600  6.992    3.992    37.292   
 246.800  5.943    4.238    37.600   
 247.000  4.894    4.485    37.600   
 247.200  4.741    4.182    37.220   
 247.400  4.615    3.529    37.252   
 247.600  5.000    3.561    37.475   
 247.800  4.893    3.656    37.281   
 248.000  4.885    3.751    37.226   
 248.200  5.032    3.818    37.462   
 248.400  4.946    3.774    37.600   
 248.600  4.684    4.170    38.003   
 248.800  5.192    4.593    38.648   
 249.000  6.270    5.016    45.406   
 249.200  7.254    5.140    45.210   
 249.400  6.591    4.691    41.103   
 249.600  5.928    4.241    37.215   
 249.800  5.266    4.160    36.694   
 250.000  4.923    3.919    36.655   
 250.200  5.783    3.903    37.226   
 250.400  6.644    4.005    36.976   
 250.600  7.504    3.907    36.727   
 250.800  7.325    3.903    36.990   
 251.000  6.671    3.903    37.725   
 251.200  6.016    3.895    37.781   
 251.400  5.362    3.745    37.273   
 251.600  4.707    3.582    36.878   
 251.800  4.053    3.617    36.976   
 252.000  3.982    5.608    37.101   
 252.200  5.423    6.745    36.639   
 252.400  6.864    7.881    36.477   
 252.600  8.305    7.135    36.602   
 252.800  9.746    6.346    36.602   
 253.000  10.705   5.556    37.098   
 253.200  8.984    4.766    36.957   
 253.400  7.263    4.089    36.602   
 253.600  5.543    4.038    37.162   
 253.800  4.856    3.810    37.725   
 254.000  4.938    3.835    37.496   
 254.200  5.232    3.870    36.477   
 254.400  5.204    3.770    36.206   
 254.600  5.337    3.828    35.896   
 254.800  5.534    4.016    36.292   
 255.000  5.300    4.325    37.685   
 255.200  4.845    4.668    37.743   
 255.400  4.615    4.944    37.098   
 255.600  4.550    5.117    37.499   
 255.800  4.812    5.155    38.473   
 256.000  5.042    5.363    38.665   
 256.200  5.051    5.600    39.310   
 256.400  5.032    5.217    40.485   
 256.600  5.441    4.806    37.095   
 256.800  5.588    4.497    36.325   
