~VERSION INFORMATION
 VERS.                          2.0 :CWLS LOG ASCII STANDARD [logix (c) Softland]
 WRAP.                          NO  : ONE LINE PER DEPTH STEP
~WELL INFORMATION
#MNEM.UNIT           DATA                         :DESCRIPTION
#----.----           ----------                      ----------------
 STRT.M    4.000                                   :START DEPTH
 STOP.M  656.000                                   :STOP  DEPTH
 STEP.M 0.200                                      :STEP
 NULL.  -99999.000                                 :NULL VALUE
 ALT.M    0.000                                    :KB or GL
 COMP.  Нефтяная компания                          :OIL COMPANY
 WELL.  65                                         :WELL
 FLD .  прямое                                     :FIELD
 LOC .                                             :LOCATION
 CTRY.                                             :COUNTRY
 SRVC.                                             :SERVICE COMPANY
 DATE.                                             :DATE
 API .                                             :API NUMBER
 UWI .                                             :UNIVERSAL WELL INDEX
~Curve Information Section
#MNEM.UNIT           API CODE                       Curve Description
#----.----           ----------                      ----------------
 DEPT.M                       :
 PZ.OHMM                            :
 GZ3.OHMM                            :
 PS.MV                            :
~A DEPT PZ.OHMM GZ3.OHMM PS.MV
# ...
 468.000  2.710    2.630    33.859   
 468.200  2.776    2.579    33.982   
 468.400  2.774    2.604    33.937   
 468.600  2.774    2.710    33.608   
 468.800  2.806    2.715    33.733   
 469.000  2.806    2.820    33.109   
 469.200  2.828    2.783    33.104   
 469.400  2.806    2.715    33.207   
 469.600  2.806    2.715    32.907   
 469.800  2.774    2.696    33.040   
 470.000  2.779    2.805    32.859   
 470.200  2.742    2.790    33.220   
 470.400  2.742    2.684    33.226   
 470.600  2.774    2.613    32.984   
 470.800  2.806    2.579    33.608   
 471.000  2.806    2.613    33.109   
 471.200  2.806    2.703    33.016   
 471.400  2.838    2.697    33.245   
 471.600  2.839    2.735    33.119   
 471.800  2.839    2.841    33.889   
 472.000  2.795    2.721    34.054   
 472.200  2.806    2.715    33.733   
 472.400  2.806    2.749    33.513   
 472.600  2.806    2.783    33.475   
 472.800  2.774    2.885    34.606   
 473.000  2.742    2.938    34.731   
 473.200  2.777    2.867    34.301   
 473.400  2.774    2.783    34.654   
 473.600  2.774    2.647    34.481   
 473.800  2.789    2.681    35.099   
 474.000  2.788    2.613    36.617   
 474.200  2.774    2.613    38.187   
 474.400  2.774    2.757    38.781   
 474.600  2.774    2.862    40.923   
 474.800  2.774    2.952    42.988   
 475.000  2.774    2.763    45.833   
 475.200  2.742    2.613    41.823   
 475.400  2.742    2.450    38.388   
 475.600  2.724    2.344    36.541   
 475.800  2.742    2.240    34.563   
 476.000  2.677    2.166    35.458   
 476.200  2.710    2.215    36.477   
 476.400  2.710    2.389    37.350   
 476.600  2.677    2.495    35.562   
 476.800  2.677    2.567    34.919   
 477.000  2.665    2.588    35.105   
 477.200  2.662    2.511    34.749   
 477.400  2.666    2.545    34.855   
 477.600  2.669    2.576    35.627   
 477.800  2.677    2.504    36.647   
 478.000  2.710    2.455    37.101   
 478.200  2.710    2.443    36.639   
 478.400  2.702    2.443    35.338   
 478.600  2.689    2.432    34.107   
 478.800  2.677    2.369    34.107   
 479.000  2.729    2.440    34.404   
 479.200  2.765    2.580    34.481   
 479.400  2.866    2.613    34.017   
 479.600  2.871    2.545    34.218   
 479.800  2.903    2.817    35.237   
 480.000  2.871    3.037    36.132   
 480.200  2.935    2.898    35.853   
 480.400  3.000    2.545    35.033   
 480.600  3.032    2.381    34.638   
 480.800  3.032    2.240    34.470   
 481.000  2.974    2.342    34.741   
 481.200  3.194    2.314    34.824   
 481.400  3.744    2.274    34.659   
 481.600  3.839    2.274    34.731   
 481.800  3.603    2.070    34.760   
 482.000  3.645    2.194    35.105   
 482.200  5.179    2.349    34.869   
 482.400  5.419    2.508    34.481   
 482.600  5.458    2.749    34.356   
 482.800  4.584    3.020    34.558   
 483.000  3.451    3.266    34.704   
 483.200  2.834    3.483    34.980   
 483.400  2.742    3.208    35.230   
 483.600  2.787    3.088    35.230   
 483.800  2.790    3.122    35.046   
 484.000  2.710    3.557    34.855   
 484.200  2.645    3.532    34.831   
 484.400  2.677    2.952    35.357   
 484.600  2.677    2.890    35.747   
 484.800  2.613    2.909    35.853   
 485.000  2.613    2.871    35.917   
 485.200  2.601    2.663    35.646   
 485.400  2.564    2.579    35.604   
 485.600  2.600    2.554    36.103   
 485.800  2.839    2.545    37.247   
 486.000  2.714    2.511    37.974   
 486.200  2.291    2.511    38.348   
 486.400  2.258    2.511    38.433   
 486.600  2.265    2.511    39.702   
 486.800  2.290    2.511    45.911   
 487.000  2.114    2.477    55.187   
 487.200  1.949    2.443    63.662   
 487.400  1.894    2.410    72.137   
 487.600  2.059    2.376    80.612   
 487.800  2.256    2.342    86.758   
 488.000  2.385    2.269    86.781   
 488.200  2.258    2.274    86.804   
 488.400  2.332    2.308    86.828   
 488.600  2.484    2.342    86.851   
 488.800  2.502    2.342    86.874   
 489.000  2.516    2.342    85.576   
 489.200  2.516    2.313    84.852   
 489.400  2.516    2.240    84.880   
 489.600  2.484    2.206    83.920   
 489.800  2.511    2.206    83.304   
 490.000  2.484    2.251    84.244   
 490.200  2.452    2.342    85.183   
 490.400  2.533    2.410    75.708   
 490.600  2.613    2.353    60.828   
 490.800  2.621    2.349    49.136   
 491.000  2.581    2.270    57.903   
 491.200  2.645    2.138    66.670   
 491.400  2.677    2.210    75.437   
 491.600  2.677    2.452    74.381   
 491.800  2.665    2.693    55.058   
 492.000  2.597    2.731    38.118   
 492.200  2.729    2.477    35.729   
 492.400  2.774    2.603    35.952   
 492.600  2.806    2.443    35.858   
 492.800  2.806    2.588    35.745   
 493.000  2.871    3.049    36.851   
 493.200  3.136    2.812    36.727   
 493.400  3.817    2.574    36.148   
 493.600  4.474    2.491    34.754   
 493.800  3.539    2.392    36.225   
 494.000  2.604    2.218    36.727   
 494.200  5.201    2.062    36.437   
 494.400  8.165    1.968    35.418   
 494.600  11.130   2.036    34.980   
 494.800  14.095   2.108    34.855   
 495.000  17.060   2.214    35.105   
 495.200  19.613   2.285    35.479   
 495.400  19.613   2.308    35.561   
 495.600  19.448   2.342    35.604   
 495.800  18.689   2.399    35.269   
 496.000  17.929   2.369    34.873   
 496.200  17.169   2.475    34.855   
 496.400  17.214   2.954    34.457   
 496.600  17.617   3.399    34.606   
 496.800  18.020   3.810    34.731   
 497.000  17.676   4.221    34.855   
 497.200  17.156   4.734    35.089   
 497.400  18.458   5.214    35.099   
 497.600  17.832   5.698    34.731   
 497.800  15.796   5.517    35.105   
 498.000  13.760   5.094    35.105   
 498.200  11.724   4.671    34.731   
 498.400  9.687    4.248    34.855   
 498.600  7.651    4.422    34.722   
 498.800  9.180    4.800    34.980   
 499.000  11.395   5.177    34.731   
 499.200  13.610   5.555    34.855   
 499.400  15.826   5.789    35.105   
 499.600  14.123   5.598    34.980   
 499.800  12.397   5.532    34.991   
 500.000  10.671   5.526    35.387   
 500.200  8.945    5.405    35.729   
 500.400  7.012    5.284    35.853   
 500.600  4.881    4.734    35.450   
 500.800  3.547    4.076    36.969   
 501.000  3.185    3.418    37.600   
 501.200  3.067    4.203    37.884   
 501.400  3.032    5.128    35.922   
 501.600  3.107    5.426    36.602   
 501.800  3.208    4.527    36.503   
 502.000  3.258    3.628    36.103   
 502.200  3.323    3.373    36.244   
 502.400  3.355    3.302    38.636   
 502.600  3.385    3.236    39.780   
 502.800  3.482    3.130    40.183   
 503.000  3.419    3.024    36.376   
 503.200  3.484    2.953    36.352   
 503.400  3.548    3.160    34.625   
 503.600  3.484    3.266    35.230   
 503.800  3.537    3.394    35.230   
 504.000  3.548    3.390    35.687   
 504.200  3.548    3.453    36.103   
 504.400  3.806    3.553    36.056   
 504.600  3.834    3.659    35.907   
 504.800  3.734    3.701    35.759   
 505.000  3.786    3.803    35.664   
 505.200  3.823    3.761    35.393   
 505.400  4.000    3.757    36.210   
 505.600  3.815    3.815    36.730   
 505.800  3.456    3.851    37.725   
 506.000  3.323    3.755    36.851   
 506.200  3.391    3.835    36.285   
 506.400  3.444    3.738    35.765   
 506.600  3.419    3.530    35.354   
 506.800  3.499    3.390    35.604   
 507.000  3.387    3.065    35.604   
 507.200  3.300    3.224    35.729   
 507.400  3.392    3.383    35.674   
 507.600  3.547    3.541    35.263   
 507.800  3.613    3.563    35.105   
 508.000  3.684    3.665    35.230   
 508.200  3.774    3.767    35.354   
 508.400  3.677    3.767    35.604   
 508.600  3.728    3.806    35.604   
 508.800  3.774    3.869    35.479   
 509.000  3.716    4.038    35.364   
 509.200  3.615    4.734    35.230   
 509.400  3.677    4.921    35.446   
 509.600  3.812    5.090    35.479   
 509.800  3.829    4.688    35.479   
 510.000  3.742    4.074    35.825   
