~VERSION INFORMATION
 VERS.                          2.0 :CWLS LOG ASCII STANDARD [logix (c) Softland]
 WRAP.                          NO  : ONE LINE PER DEPTH STEP
~WELL INFORMATION
#MNEM.UNIT           DATA                         :DESCRIPTION
#----.----           ----------                      ----------------
 STRT.M    4.000                                   :START DEPTH
 STOP.M  656.000                                   :STOP  DEPTH
 STEP.M 0.200                                      :STEP
 NULL.  -99999.000                                 :NULL VALUE
 ALT.M    0.000                                    :KB or GL
 COMP.  Нефтяная компания                          :OIL COMPANY
 WELL.  65                                         :WELL
 FLD .  прямое                                     :FIELD
 LOC .                                             :LOCATION
 CTRY.                                             :COUNTRY
 SRVC.                                             :SERVICE COMPANY
 DATE.                                             :DATE
 API .                                             :API NUMBER
 UWI .                                             :UNIVERSAL WELL INDEX
~Curve Information Section
#MNEM.UNIT           API CODE                       Curve Description
#----.----           ----------                      ----------------
 DEPT.M                       :
 PZ.OHMM                            :
 GZ3.OHMM                            :
 PS.MV                            :
~A DEPT PZ.OHMM GZ3.OHMM PS.MV
# ...
 257.000  4.971    4.398    36.103   
 257.200  4.678    4.310    35.909   
 257.400  4.940    4.276    36.194   
 257.600  5.355    4.176    36.864   
 257.800  5.710    4.174    36.860   
 258.000  6.000    4.181    37.754   
 258.200  5.399    4.456    38.399   
 258.400  5.097    4.630    38.276   
 258.600  5.161    4.785    37.974   
 258.800  6.000    4.661    37.974   
 259.000  7.113    4.386    39.108   
 259.200  6.991    4.212    41.125   
 259.400  6.302    5.193    41.289   
 259.600  5.614    5.212    39.521   
 259.800  4.926    6.566    36.985   
 260.000  6.645    6.992    35.611   
 260.200  8.714    6.214    35.354   
 260.400  10.784   5.436    35.389   
 260.600  9.635    4.657    35.660   
 260.800  8.450    3.879    35.806   
 261.000  7.266    4.267    36.077   
 261.200  6.081    4.717    36.477   
 261.400  4.896    4.995    36.103   
 261.600  5.260    5.353    35.940   
 261.800  6.927    4.882    35.853   
 262.000  8.594    4.412    35.853   
 262.200  8.305    4.094    35.853   
 262.400  7.006    4.368    35.855   
 262.600  5.707    4.641    35.873   
 262.800  5.755    4.914    36.228   
 263.000  7.412    4.914    36.291   
 263.200  9.069    4.415    35.729   
 263.400  10.725   3.974    35.874   
 263.600  9.649    4.004    36.228   
 263.800  8.371    4.034    36.352   
 264.000  7.094    4.038    36.184   
 264.200  5.816    4.038    35.914   
 264.400  4.539    4.038    36.188   
 264.600  4.439    4.038    37.208   
 264.800  4.624    4.038    36.973   
 265.000  4.573    4.038    36.078   
 265.200  4.641    4.038    35.558   
 265.400  4.710    4.038    35.671   
 265.600  4.645    4.275    36.191   
 265.800  4.548    4.557    36.477   
 266.000  4.504    4.839    36.221   
 266.200  4.452    5.121    36.228   
 266.400  4.484    4.646    36.900   
 266.600  4.540    4.744    38.348   
 266.800  4.544    4.815    38.564   
 267.000  4.613    4.683    37.238   
 267.200  4.546    4.683    36.361   
 267.400  4.591    4.401    36.447   
 267.600  4.636    4.215    36.301   
 267.800  4.774    4.121    36.228   
 268.000  4.820    3.923    35.978   
 268.200  4.926    3.770    35.968   
 268.400  5.704    4.600    35.842   
 268.600  5.966    4.838    35.978   
 268.800  5.486    4.904    36.406   
 269.000  4.930    4.410    36.677   
 269.200  4.893    4.075    36.880   
 269.400  4.742    3.908    37.101   
 269.600  4.824    3.935    36.962   
 269.800  4.817    3.934    36.762   
 270.000  4.781    3.847    36.727   
 270.200  4.713    4.046    36.430   
 270.400  4.681    4.240    36.826   
 270.600  5.852    4.200    36.976   
 270.800  7.412    4.106    37.367   
 271.000  8.631    4.012    37.600   
 271.200  7.505    4.482    37.784   
 271.400  6.379    4.999    37.894   
 271.600  5.253    5.470    37.623   
 271.800  5.183    4.698    38.596   
 272.000  5.145    3.926    40.988   
 272.200  5.107    3.154    41.841   
 272.400  5.618    3.802    43.400   
 272.600  5.276    4.748    44.336   
 272.800  5.167    5.693    43.817   
 273.000  5.314    6.638    45.211   
 273.200  5.461    7.583    48.870   
 273.400  5.609    6.658    47.401   
 273.600  5.741    4.906    45.932   
 273.800  5.710    3.874    48.179   
 274.000  5.742    3.733    51.091   
 274.200  5.699    3.506    54.003   
 274.400  5.692    3.200    54.811   
 274.600  5.761    2.895    52.161   
 274.800  5.816    2.705    49.511   
 275.000  5.710    2.999    47.366   
 275.200  5.805    3.293    46.985   
 275.400  6.325    3.397    46.639   
 275.600  6.735    3.246    46.293   
 275.800  7.904    3.732    46.406   
 276.000  9.073    7.138    46.670   
 276.200  10.242   7.644    52.687   
 276.400  11.410   6.004    59.626   
 276.600  12.579   6.791    66.565   
 276.800  13.748   8.508    70.680   
 277.000  14.916   10.394   70.416   
 277.200  16.085   12.726   70.538   
 277.400  16.774   12.809   71.047   
 277.600  15.742   13.847   71.292   
 277.800  15.077   14.206   72.359   
 278.000  14.943   14.905   73.857   
 278.200  17.059   16.467   71.823   
 278.400  22.419   14.750   69.789   
 278.600  21.335   12.694   70.575   
 278.800  23.478   11.826   71.761   
 279.000  19.594   12.119   72.849   
 279.200  17.419   12.465   71.328   
 279.400  17.501   11.258   69.806   
 279.600  16.675   10.898   68.285   
 279.800  15.204   9.672    66.764   
 280.000  15.139   9.501    69.258   
 280.200  15.806   12.536   72.026   
 280.400  16.068   15.910   72.171   
 280.600  22.772   20.978   68.579   
 280.800  28.929   25.586   64.986   
 281.000  35.087   23.711   61.394   
 281.200  41.244   21.836   59.807   
 281.400  44.032   19.961   59.411   
 281.600  44.300   24.111   58.848   
 281.800  45.307   28.630   59.992   
 282.000  47.025   33.149   61.468   
 282.200  50.101   37.668   62.405   
 282.400  53.178   42.187   62.299   
 282.600  55.467   46.706   59.159   
 282.800  56.834   51.225   48.495   
 283.000  57.838   55.744   46.616   
 283.200  57.535   60.263   48.459   
 283.400  57.407   64.782   50.964   
 283.600  57.735   67.003   53.279   
 283.800  53.361   65.020   37.949   
 284.000  52.373   63.037   37.553   
 284.200  50.295   68.574   36.976   
 284.400  45.134   76.154   37.938   
 284.600  44.868   83.733   38.238   
 284.800  44.435   75.440   37.468   
 285.000  40.842   65.355   37.350   
 285.200  37.249   55.270   37.649   
 285.400  33.657   45.184   37.974   
 285.600  30.064   41.035   37.941   
 285.800  26.471   45.559   37.986   
 286.000  22.878   50.084   37.475   
 286.200  22.736   49.352   38.504   
 286.400  31.924   43.739   45.547   
 286.600  26.449   38.125   48.182   
 286.800  20.975   32.511   47.391   
 287.000  19.533   30.773   49.767   
 287.200  18.365   36.326   59.812   
 287.400  14.617   41.878   57.386   
 287.600  10.869   45.532   49.990   
 287.800  10.257   37.356   42.595   
 288.000  9.631    29.179   39.249   
 288.200  13.038   21.003   38.972   
 288.400  13.226   12.827   39.112   
 288.600  10.645   11.888   39.186   
 288.800  11.000   11.196   38.042   
 289.000  6.723    10.505   37.600   
 289.200  5.574    9.813    37.949   
 289.400  4.748    9.716    38.726   
 289.600  5.917    9.452    38.206   
 289.800  7.451    9.187    37.686   
 290.000  5.818    8.923    37.784   
 290.200  6.298    8.383    38.429   
 290.400  6.263    7.678    35.501   
 290.600  6.498    7.624    34.856   
 290.800  6.547    7.851    35.479   
 291.000  5.570    8.078    38.514   
 291.200  8.170    8.304    45.023   
 291.400  8.674    8.375    46.225   
 291.600  9.338    8.824    51.604   
 291.800  13.067   8.654    53.568   
 292.000  15.506   8.313    53.942   
 292.200  15.280   7.787    52.996   
 292.400  12.742   7.975    51.365   
 292.600  10.725   8.314    49.733   
 292.800  9.738    8.654    54.995   
 293.000  8.105    8.386    60.928   
 293.200  7.742    7.688    60.928   
 293.400  7.744    7.498    61.804   
 293.600  6.290    7.975    59.713   
 293.800  6.445    8.145    57.623   
 294.000  6.836    7.805    57.432   
 294.200  7.228    8.145    56.528   
 294.400  7.903    7.975    55.894   
 294.600  7.788    7.975    58.776   
 294.800  7.445    7.911    61.657   
 295.000  6.781    8.101    62.136   
 295.200  6.452    8.145    64.222   
 295.400  6.676    7.462    67.425   
 295.600  10.026   6.803    62.723   
 295.800  10.278   7.332    58.021   
 296.000  13.966   7.860    54.210   
 296.200  18.396   8.070    54.309   
 296.400  22.826   7.881    51.706   
 296.600  23.315   8.429    48.882   
 296.800  21.373   8.957    49.521   
 297.000  20.797   9.163    51.537   
 297.200  22.487   10.015   53.552   
 297.400  24.177   11.176   55.567   
 297.600  25.867   12.770   57.582   
 297.800  27.557   13.638   59.597   
 298.000  27.903   13.575   61.309   
 298.200  27.903   15.714   60.024   
 298.400  28.293   17.600   61.906   
 298.600  27.210   18.326   63.420   
 298.800  24.052   20.524   61.925   
 299.000  26.178   24.277   60.431   
