~VERSION INFORMATION
 VERS.                          2.0 :CWLS LOG ASCII STANDARD [logix (c) Softland]
 WRAP.                          NO  : ONE LINE PER DEPTH STEP
~WELL INFORMATION
#MNEM.UNIT           DATA                         :DESCRIPTION
#----.----           ----------                      ----------------
 STRT.M    4.000                                   :START DEPTH
 STOP.M  656.000                                   :STOP  DEPTH
 STEP.M 0.200                                      :STEP
 NULL.  -99999.000                                 :NULL VALUE
 ALT.M    0.000                                    :KB or GL
 COMP.  Нефтяная компания                          :OIL COMPANY
 WELL.  65                                         :WELL
 FLD .  прямое                                     :FIELD
 LOC .                                             :LOCATION
 CTRY.                                             :COUNTRY
 SRVC.                                             :SERVICE COMPANY
 DATE.                                             :DATE
 API .                                             :API NUMBER
 UWI .                                             :UNIVERSAL WELL INDEX
~Curve Information Section
#MNEM.UNIT           API CODE                       Curve Description
#----.----           ----------                      ----------------
 DEPT.M                       :
 PZ.OHMM                            :
 GZ3.OHMM                            :
 PS.MV                            :
~A DEPT PZ.OHMM GZ3.OHMM PS.MV
# ...
 130.400  3.196    3.258    41.266   
 130.600  3.226    3.258    39.748   
 130.800  3.258    3.156    38.355   
 131.000  3.226    3.224    37.211   
 131.200  3.194    3.269    36.763   
 131.400  3.139    3.326    37.782   
 131.600  3.226    3.394    39.051   
 131.800  3.194    3.336    39.446   
 132.000  3.323    3.292    38.602   
 132.200  3.290    3.326    36.744   
 132.400  3.248    3.292    37.600   
 132.600  3.194    3.292    38.099   
 132.800  3.226    3.249    37.849   
 133.000  3.387    3.258    37.226   
 133.200  3.387    3.156    36.852   
 133.400  3.355    3.156    38.618   
 133.600  3.257    3.215    38.224   
 133.800  3.226    3.287    39.409   
 134.000  3.387    3.326    40.553   
 134.200  3.368    3.292    41.736   
 134.400  3.338    3.224    39.220   
 134.600  3.302    3.156    38.949   
 134.800  3.290    3.224    37.145   
 135.000  3.286    3.243    37.226   
 135.200  3.290    3.224    37.562   
 135.400  3.359    3.258    37.957   
 135.600  3.476    3.255    38.344   
 135.800  3.452    3.122    38.000   
 136.000  3.467    3.088    37.896   
 136.200  3.484    3.063    38.167   
 136.400  3.419    3.008    38.473   
 136.600  3.355    2.936    37.988   
 136.800  3.355    2.973    37.856   
 137.000  3.258    3.079    38.348   
 137.200  3.329    3.184    38.348   
 137.400  3.398    3.256    38.294   
 137.600  3.355    3.156    38.316   
 137.800  3.244    3.150    38.836   
 138.000  3.323    3.020    39.231   
 138.200  3.290    3.054    39.222   
 138.400  3.290    3.020    38.972   
 138.600  3.323    3.054    39.097   
 138.800  3.329    3.088    38.723   
 139.000  3.419    3.088    38.348   
 139.200  3.452    2.986    38.710   
 139.400  3.484    2.885    39.255   
 139.600  3.419    2.960    39.416   
 139.800  3.445    2.873    39.145   
 140.000  3.487    2.866    38.348   
 140.200  3.386    2.972    38.348   
 140.400  3.419    3.044    38.099   
 140.600  3.323    3.116    38.099   
 140.800  3.323    3.158    38.224   
 141.000  3.275    3.121    38.427   
 141.200  3.472    3.088    38.847   
 141.400  3.452    3.200    39.218   
 141.600  3.516    3.271    38.829   
 141.800  3.516    3.241    38.762   
 142.000  3.577    3.245    38.723   
 142.200  3.452    3.165    38.804   
 142.400  3.516    3.020    39.119   
 142.600  3.484    3.020    38.847   
 142.800  3.452    3.054    38.702   
 143.000  3.475    3.129    38.224   
 143.200  3.484    3.224    38.348   
 143.400  3.515    3.273    38.433   
 143.600  3.613    3.326    38.224   
 143.800  3.638    3.383    38.475   
 144.000  3.581    3.394    38.723   
 144.200  3.548    3.425    38.928   
 144.400  3.484    3.292    38.657   
 144.600  3.484    3.258    38.348   
 144.800  3.484    3.215    38.207   
 145.000  3.548    3.245    37.600   
 145.200  3.581    3.309    37.725   
 145.400  3.548    3.346    37.896   
 145.600  3.548    3.394    37.918   
 145.800  3.599    3.428    38.313   
 146.000  3.516    3.495    38.459   
 146.200  3.688    3.495    38.847   
 146.400  3.832    3.495    39.250   
 146.600  3.997    3.553    39.097   
 146.800  4.128    3.515    38.972   
 147.000  4.092    3.480    38.972   
 147.200  3.677    3.394    38.847   
 147.400  3.632    3.326    38.837   
 147.600  3.499    3.292    38.972   
 147.800  3.484    3.326    38.847   
 148.000  3.444    3.326    39.097   
 148.200  3.358    3.258    38.877   
 148.400  3.290    3.258    38.972   
 148.600  3.355    3.292    38.835   
 148.800  3.363    3.224    38.847   
 149.000  3.311    3.248    39.152   
 149.200  3.258    3.264    39.222   
 149.400  3.310    3.224    38.972   
 149.600  3.258    3.258    38.853   
 149.800  3.350    3.292    38.847   
 150.000  3.355    3.326    39.097   
 150.200  3.358    3.326    39.280   
 150.400  3.419    3.360    39.301   
 150.600  3.419    3.326    39.246   
 150.800  3.387    3.300    39.097   
 151.000  3.406    3.292    39.222   
 151.200  3.452    3.326    39.057   
 151.400  3.419    3.295    38.972   
 151.600  3.419    3.284    38.972   
 151.800  3.452    3.235    38.869   
 152.000  3.413    3.239    38.972   
 152.200  3.462    3.326    39.450   
 152.400  3.548    3.269    39.304   
 152.600  3.581    3.258    39.033   
 152.800  3.484    3.292    39.057   
 153.000  3.548    3.292    39.222   
 153.200  3.548    3.219    39.222   
 153.400  3.515    3.122    39.596   
 153.600  3.489    3.156    39.346   
 153.800  3.558    3.139    39.471   
 154.000  3.581    3.122    39.509   
 154.200  3.645    3.097    39.238   
 154.400  3.721    3.117    39.217   
 154.600  3.799    3.088    39.097   
 154.800  3.778    3.156    39.097   
 155.000  3.774    3.190    39.471   
 155.200  3.738    3.224    39.132   
 155.400  3.710    3.224    39.222   
 155.600  3.548    3.326    39.097   
 155.800  3.565    3.382    39.222   
 156.000  3.548    3.462    39.596   
 156.200  3.548    3.431    39.150   
 156.400  3.581    3.393    39.097   
 156.600  3.613    3.253    39.211   
 156.800  3.677    3.224    39.461   
 157.000  3.613    3.270    40.002   
 157.200  3.581    3.376    40.719   
 157.400  3.628    3.394    40.668   
 157.600  3.645    3.394    40.249   
 157.800  3.645    3.292    40.211   
 158.000  3.645    3.328    40.981   
 158.200  3.645    3.464    41.127   
 158.400  3.645    3.569    41.093   
 158.600  3.607    3.587    40.891   
 158.800  3.677    3.529    41.690   
 159.000  3.599    3.511    42.709   
 159.200  3.663    3.440    43.214   
 159.400  3.742    3.232    41.629   
 159.600  3.736    2.986    39.538   
 159.800  3.712    2.986    39.052   
 160.000  3.710    3.092    38.871   
 160.200  3.607    3.300    38.723   
 160.400  3.622    3.473    38.972   
 160.600  3.626    3.649    38.972   
 160.800  3.824    3.612    38.473   
 161.000  3.818    3.587    38.473   
 161.200  3.839    3.672    38.576   
 161.400  4.032    3.668    38.972   
 161.600  4.001    3.664    39.450   
 161.800  4.355    3.806    39.553   
 162.000  4.443    3.869    39.158   
 162.200  4.084    3.788    38.723   
 162.400  3.758    3.750    38.473   
 162.600  3.645    3.508    38.476   
 162.800  3.581    3.504    38.574   
 163.000  3.548    3.428    38.598   
 163.200  3.548    3.394    38.664   
 163.400  3.545    3.357    38.685   
 163.600  3.509    3.292    39.330   
 163.800  3.528    3.258    38.967   
 164.000  3.516    3.277    38.749   
 164.200  3.548    3.224    38.770   
 164.400  3.572    3.224    38.598   
 164.600  3.581    3.251    38.348   
 164.800  3.581    3.258    38.348   
 165.000  3.548    3.326    38.731   
 165.200  3.606    3.365    39.875   
 165.400  3.570    3.394    41.875   
 165.600  3.581    3.428    44.089   
 165.800  3.530    3.428    45.459   
 166.000  3.516    3.394    45.220   
 166.200  3.548    3.369    42.704   
 166.400  3.581    3.394    41.186   
 166.600  3.548    3.327    39.168   
 166.800  3.613    3.292    38.399   
 167.000  3.613    3.298    38.128   
 167.200  3.599    3.281    38.099   
 167.400  3.581    3.244    38.486   
 167.600  3.613    3.258    38.598   
 167.800  3.677    3.224    38.292   
 168.000  3.645    3.258    37.974   
 168.200  3.614    3.258    38.072   
 168.400  3.747    3.292    38.343   
 168.600  3.968    3.330    38.240   
 168.800  3.988    3.292    38.510   
 169.000  3.855    3.360    39.405   
 169.200  3.806    3.326    39.970   
 169.400  3.685    3.326    39.121   
 169.600  3.617    3.292    38.476   
 169.800  3.581    3.258    38.099   
 170.000  3.552    3.226    38.014   
 170.200  3.588    3.224    38.038   
 170.400  3.592    3.218    37.974   
 170.600  3.613    3.224    37.725   
 170.800  3.548    3.224    37.350   
 171.000  3.516    3.309    37.079   
 171.200  3.516    3.326    37.019   
 171.400  3.452    3.360    37.664   
 171.600  3.516    3.389    38.224   
 171.800  3.587    3.394    38.117   
 172.000  3.624    3.394    38.102   
 172.200  3.742    3.318    38.324   
 172.400  3.724    3.348    38.053   
