~VERSION INFORMATION
 VERS.                          2.0 :CWLS LOG ASCII STANDARD [logix (c) Softland]
 WRAP.                          NO  : ONE LINE PER DEPTH STEP
~WELL INFORMATION
#MNEM.UNIT           DATA                         :DESCRIPTION
#----.----           ----------                      ----------------
 STRT.M    4.000                                   :START DEPTH
 STOP.M  656.000                                   :STOP  DEPTH
 STEP.M 0.200                                      :STEP
 NULL.  -99999.000                                 :NULL VALUE
 ALT.M    0.000                                    :KB or GL
 COMP.  Нефтяная компания                          :OIL COMPANY
 WELL.  65                                         :WELL
 FLD .  прямое                                     :FIELD
 LOC .                                             :LOCATION
 CTRY.                                             :COUNTRY
 SRVC.                                             :SERVICE COMPANY
 DATE.                                             :DATE
 API .                                             :API NUMBER
 UWI .                                             :UNIVERSAL WELL INDEX
~Curve Information Section
#MNEM.UNIT           API CODE                       Curve Description
#----.----           ----------                      ----------------
 DEPT.M                       :
 PZ.OHMM                            :
 GZ3.OHMM                            :
 PS.MV                            :
~A DEPT PZ.OHMM GZ3.OHMM PS.MV
# ...
 46.000   3.000    3.573    35.354   
 46.200   2.968    3.399    35.239   
 46.400   2.968    3.260    34.980   
 46.600   3.000    3.156    34.731   
 46.800   2.956    3.156    34.731   
 47.000   2.888    3.132    34.931   
 47.200   2.858    3.006    34.952   
 47.400   2.774    2.919    34.862   
 47.600   2.995    2.851    34.965   
 47.800   3.032    2.885    35.194   
 48.000   2.968    2.948    35.354   
 48.200   2.903    3.020    35.479   
 48.400   2.871    3.024    35.604   
 48.600   2.760    2.979    35.479   
 48.800   2.922    2.873    35.479   
 49.000   2.913    2.783    35.518   
 49.200   2.897    2.885    35.354   
 49.400   2.776    3.044    35.024   
 49.600   2.776    3.196    34.753   
 49.800   2.839    3.057    34.856   
 50.000   2.871    2.815    35.085   
 50.200   2.871    2.608    34.980   
 50.400   2.774    2.536    34.918   
 50.600   2.720    2.559    34.647   
 50.800   2.677    2.630    34.980   
 51.000   2.675    2.681    35.353   
 51.200   2.775    2.681    35.252   
 51.400   2.903    2.584    35.186   
 51.600   2.944    2.646    34.915   
 51.800   2.987    2.644    34.481   
 52.000   2.920    2.640    34.356   
 52.200   3.000    2.828    34.485   
 52.400   3.065    2.968    34.830   
 52.600   3.133    3.073    34.356   
 52.800   3.032    3.122    34.039   
 53.000   2.931    3.183    33.643   
 53.200   2.806    3.323    34.467   
 53.400   2.839    3.293    35.112   
 53.600   2.920    3.398    35.507   
 53.800   3.052    3.283    35.778   
 54.000   3.000    2.974    35.978   
 54.200   2.963    2.732    35.512   
 54.400   2.969    2.871    35.479   
 54.600   2.900    2.817    35.719   
 54.800   2.813    2.879    36.228   
 55.000   2.979    3.087    36.903   
 55.200   3.000    3.462    36.653   
 55.400   2.917    3.638    36.258   
 55.600   2.881    3.597    35.105   
 55.800   2.839    3.515    35.105   
 56.000   2.805    3.683    35.105   
 56.200   2.804    3.677    35.160   
 56.400   2.812    3.563    35.153   
 56.600   2.903    3.627    35.105   
 56.800   2.871    3.835    34.737   
 57.000   2.889    3.797    34.746   
 57.200   2.903    3.521    35.391   
 57.400   2.864    3.258    35.537   
 57.600   2.871    3.106    35.932   
 57.800   2.872    3.000    36.103   
 58.000   3.070    3.020    36.228   
 58.200   3.129    3.150    35.586   
 58.400   3.116    3.158    34.941   
 58.600   3.032    3.156    34.791   
 58.800   2.968    3.224    35.354   
 59.000   2.968    3.190    35.501   
 59.200   2.903    3.075    35.230   
 59.400   2.935    2.969    35.105   
 59.600   2.907    2.863    35.063   
 59.800   2.935    2.944    35.105   
 60.000   2.903    3.118    35.314   
 60.200   2.871    3.224    35.335   
 60.400   2.819    3.190    35.481   
 60.600   2.830    3.265    35.729   
 60.800   2.839    3.405    35.604   
 61.000   2.903    3.394    35.604   
 61.200   2.935    3.326    35.604   
 61.400   2.968    3.269    35.604   
 61.600   2.968    3.231    35.729   
 61.800   2.968    3.289    35.630   
 62.000   2.903    3.361    35.729   
 62.200   2.913    3.428    35.729   
 62.400   2.962    3.452    35.514   
 62.600   3.031    3.415    35.465   
 62.800   3.094    3.377    35.736   
 63.000   3.058    3.258    36.228   
 63.200   3.075    3.215    36.228   
 63.400   3.143    3.190    35.907   
 63.600   3.000    3.223    36.228   
 63.800   2.968    3.255    36.352   
 64.000   2.968    3.292    36.228   
 64.200   3.030    3.326    36.228   
 64.400   3.098    3.277    35.926   
 64.600   3.167    3.171    36.052   
 64.800   3.258    3.167    36.352   
 65.000   3.290    3.130    36.468   
 65.200   3.226    3.187    36.490   
 65.400   3.161    3.224    36.885   
 65.600   3.218    3.262    36.547   
 65.800   3.165    3.334    36.276   
 66.000   3.226    3.462    36.130   
 66.200   3.194    3.377    37.231   
 66.400   3.226    3.373    38.613   
 66.600   3.290    3.316    40.131   
 66.800   3.290    3.326    41.151   
 67.000   3.290    3.394    41.546   
 67.200   3.314    3.464    41.218   
 67.400   3.387    3.468    41.090   
 67.600   3.451    3.519    41.218   
 67.800   3.452    3.462    40.929   
 68.000   3.548    3.410    40.779   
 68.200   3.537    3.372    41.424   
 68.400   3.516    3.386    41.115   
 68.600   3.484    3.462    40.719   
 68.800   3.484    3.461    41.072   
 69.000   3.392    3.394    41.883   
 69.200   3.452    3.394    42.277   
 69.400   3.452    3.394    40.928   
 69.600   3.510    3.462    38.069   
 69.800   3.526    3.529    36.811   
 70.000   3.534    3.597    37.075   
 70.200   3.466    3.659    37.338   
 70.400   3.419    3.665    37.475   
 70.600   3.355    3.596    36.764   
 70.800   3.355    3.529    36.602   
 71.000   3.387    3.529    36.352   
 71.200   3.651    3.495    36.477   
 71.400   4.267    3.513    36.524   
 71.600   4.535    3.529    36.670   
 71.800   5.015    3.563    36.512   
 72.000   3.721    3.597    36.713   
 72.200   3.298    3.596    36.719   
 72.400   3.290    3.526    36.851   
 72.600   3.290    3.495    36.901   
 72.800   3.254    3.506    36.727   
 73.000   3.266    3.578    36.634   
 73.200   3.278    3.597    36.965   
 73.400   3.258    3.620    36.851   
 73.600   3.258    3.699    36.446   
 73.800   3.355    3.533    35.925   
 74.000   3.327    3.088    35.031   
 74.200   3.162    2.744    35.574   
 74.400   2.867    2.401    34.739   
 74.600   2.864    2.193    35.105   
 74.800   2.731    2.121    35.264   
 75.000   2.581    2.274    35.299   
 75.200   2.548    2.638    35.105   
 75.400   2.571    2.879    35.230   
 75.600   2.608    2.986    35.485   
 75.800   2.613    3.023    35.495   
 76.000   2.645    3.129    36.140   
 76.200   2.677    3.010    36.294   
 76.400   2.570    2.831    35.899   
 76.600   2.516    2.900    36.079   
 76.800   2.581    3.144    35.978   
 77.000   2.548    3.420    35.996   
 77.200   2.516    3.495    36.142   
 77.400   2.516    3.563    36.164   
 77.600   2.516    3.593    36.352   
 77.800   2.516    3.368    36.124   
 78.000   2.452    3.076    35.853   
 78.200   2.530    2.952    35.729   
 78.400   2.548    2.885    35.686   
 78.600   2.484    2.657    36.166   
 78.800   2.484    2.539    36.228   
 79.000   2.545    2.443    36.371   
 79.200   2.612    2.408    36.103   
 79.400   2.645    2.410    36.103   
 79.600   2.645    2.443    35.978   
 79.800   2.645    2.443    36.103   
 80.000   2.613    2.376    36.265   
 80.200   2.645    2.397    36.835   
 80.400   2.710    2.503    37.355   
 80.600   2.806    2.511    37.475   
 80.800   2.742    2.477    37.427   
 81.000   2.774    2.684    36.907   
 81.200   2.774    2.994    36.512   
 81.400   2.786    3.043    36.477   
 81.600   2.791    2.564    36.103   
 81.800   2.806    2.187    35.853   
 82.000   2.806    2.013    35.604   
 82.200   2.839    1.900    35.604   
 82.400   2.839    1.867    35.821   
 82.600   2.935    1.868    36.352   
 82.800   2.897    1.929    36.363   
 83.000   2.828    1.900    36.228   
 83.200   2.774    1.913    35.978   
 83.400   2.742    2.155    35.779   
 83.600   2.839    2.532    35.604   
 83.800   2.839    2.647    35.479   
 84.000   2.839    2.245    35.354   
 84.200   2.805    1.902    35.264   
 84.400   2.768    1.731    35.410   
 84.600   2.719    1.704    35.556   
 84.800   2.774    1.731    35.952   
 85.000   2.742    1.765    36.228   
 85.200   2.677    1.712    36.477   
 85.400   2.677    1.629    36.440   
 85.600   2.742    1.629    36.103   
 85.800   2.710    1.663    35.898   
 86.000   2.747    1.493    35.853   
 86.200   2.815    1.561    35.853   
 86.400   2.871    1.697    35.978   
 86.600   2.903    1.845    36.103   
 86.800   2.806    1.900    36.164   
 87.000   2.774    2.056    36.228   
 87.200   2.835    2.114    36.228   
 87.400   2.839    2.008    36.103   
 87.600   2.839    2.068    36.103   
 87.800   2.774    1.695    36.352   
 88.000   2.754    1.465    36.602   
