~VERSION INFORMATION
 VERS.                          2.0 :CWLS LOG ASCII STANDARD [logix (c) Softland]
 WRAP.                          NO  : ONE LINE PER DEPTH STEP
~WELL INFORMATION
#MNEM.UNIT           DATA                         :DESCRIPTION
#----.----           ----------                      ----------------
 STRT.M    4.000                                   :START DEPTH
 STOP.M  656.000                                   :STOP  DEPTH
 STEP.M 0.200                                      :STEP
 NULL.  -99999.000                                 :NULL VALUE
 ALT.M    0.000                                    :KB or GL
 COMP.  Нефтяная компания                          :OIL COMPANY
 WELL.  65                                         :WELL
 FLD .  прямое                                     :FIELD
 LOC .                                             :LOCATION
 CTRY.                                             :COUNTRY
 SRVC.                                             :SERVICE COMPANY
 DATE.                                             :DATE
 API .                                             :API NUMBER
 UWI .                                             :UNIVERSAL WELL INDEX
~Curve Information Section
#MNEM.UNIT           API CODE                       Curve Description
#----.----           ----------                      ----------------
 DEPT.M                       :
 PZ.OHMM                            :
 GZ3.OHMM                            :
 PS.MV                            :
~A DEPT PZ.OHMM GZ3.OHMM PS.MV
# ...
 510.200  3.759    3.662    35.604   
 510.400  3.344    3.625    35.465   
 510.600  4.749    3.676    35.444   
 510.800  4.745    3.854    35.230   
 511.000  3.870    3.752    35.230   
 511.200  3.737    3.869    34.881   
 511.400  3.194    3.805    34.855   
 511.600  3.097    4.734    34.980   
 511.800  3.113    5.701    35.018   
 512.000  3.278    5.486    35.164   
 512.200  3.323    4.725    34.855   
 512.400  3.387    3.963    34.980   
 512.600  3.451    3.563    34.857   
 512.800  3.487    3.563    35.000   
 513.000  3.548    3.502    35.189   
 513.200  3.548    3.431    35.791   
 513.400  3.516    3.394    36.519   
 513.600  3.419    3.394    36.248   
 513.800  3.387    3.354    35.730   
 514.000  3.543    3.302    35.207   
 514.200  3.645    3.442    35.105   
 514.400  3.583    3.495    35.040   
 514.600  3.845    3.653    34.941   
 514.800  3.925    3.877    35.230   
 515.000  3.792    4.208    35.101   
 515.200  3.825    4.445    35.005   
 515.400  3.687    4.517    35.105   
 515.600  3.425    4.751    34.923   
 515.800  3.194    4.751    34.570   
 516.000  3.256    4.733    34.965   
 516.200  3.129    4.974    35.111   
 516.400  3.129    5.080    35.354   
 516.600  3.175    4.384    35.479   
 516.800  3.290    3.973    35.159   
 517.000  3.290    4.344    35.138   
 517.200  3.251    3.889    34.867   
 517.400  3.519    3.487    34.980   
 517.600  3.742    3.475    35.010   
 517.800  3.608    3.563    35.105   
 518.000  3.290    3.654    35.427   
 518.200  3.213    4.109    35.479   
 518.400  2.968    4.564    35.479   
 518.600  2.968    5.019    35.467   
 518.800  3.057    4.498    35.230   
 519.000  3.036    3.969    35.230   
 519.200  3.032    3.627    34.905   
 519.400  3.028    3.536    34.731   
 519.600  2.968    3.480    34.980   
 519.800  2.915    3.371    34.995   
 520.000  3.032    3.163    34.980   
 520.200  3.110    3.156    35.105   
 520.400  3.009    3.291    35.433   
 520.600  3.005    3.224    35.380   
 520.800  3.097    3.301    35.604   
 521.000  3.161    3.360    35.354   
 521.200  3.265    3.292    35.729   
 521.400  3.419    3.292    35.479   
 521.600  3.355    3.224    35.435   
 521.800  3.304    3.094    35.105   
 522.000  3.171    2.952    35.602   
 522.200  3.123    2.921    35.374   
 522.400  3.097    3.061    35.479   
 522.600  3.129    3.302    35.729   
 522.800  3.232    3.428    35.645   
 523.000  3.226    3.375    35.604   
 523.200  3.239    3.338    35.103   
 523.400  3.179    3.360    35.354   
 523.600  3.280    3.364    35.230   
 523.800  3.348    3.292    35.164   
 524.000  3.261    3.326    35.019   
 524.200  3.290    3.318    34.713   
 524.400  3.327    3.304    34.980   
 524.600  3.581    3.242    34.980   
 524.800  3.529    3.176    35.027   
 525.000  3.920    2.963    34.855   
 525.200  4.032    2.857    35.105   
 525.400  3.363    2.986    35.340   
 525.600  3.165    3.395    35.354   
 525.800  3.290    3.524    35.479   
 526.000  3.391    3.428    35.528   
 526.200  3.516    3.380    35.479   
 526.400  3.290    3.037    35.571   
 526.600  3.726    2.919    35.241   
 526.800  4.032    2.885    35.239   
 527.000  4.097    2.964    35.354   
 527.200  4.129    3.442    35.302   
 527.400  3.388    3.918    35.230   
 527.600  2.965    4.394    35.135   
 527.800  2.800    4.403    35.096   
 528.000  2.742    4.480    34.980   
 528.200  2.806    4.480    34.980   
 528.400  2.756    4.480    34.980   
 528.600  2.797    4.178    35.056   
 528.800  2.839    3.841    34.980   
 529.000  2.871    3.504    35.223   
 529.200  2.903    3.414    35.090   
 529.400  2.865    3.744    35.230   
 529.600  2.742    4.075    35.479   
 529.800  2.742    3.717    35.151   
 530.000  2.677    3.188    35.130   
 530.200  2.581    2.783    35.351   
 530.400  2.581    2.754    35.247   
 530.600  2.583    2.580    35.105   
 530.800  2.613    2.477    35.414   
 531.000  2.645    2.342    35.560   
 531.200  2.636    2.352    35.729   
 531.400  2.516    2.424    35.604   
 531.600  2.581    2.477    35.749   
 531.800  2.495    2.432    36.019   
 532.000  2.484    2.504    36.539   
 532.200  2.484    2.579    36.393   
 532.400  2.484    2.545    36.352   
 532.600  2.581    2.609    36.229   
 532.800  2.621    2.791    36.749   
 533.000  2.657    2.872    37.930   
 533.200  2.662    2.631    38.348   
 533.400  2.645    2.525    38.262   
 533.600  2.637    2.443    37.242   
 533.800  2.677    2.573    35.849   
 534.000  2.773    2.681    35.479   
 534.200  2.710    2.715    35.557   
 534.400  2.670    2.675    35.797   
 534.600  2.570    2.501    35.943   
 534.800  2.484    2.294    36.103   
 535.000  2.548    2.393    35.978   
 535.200  2.484    2.613    35.950   
 535.400  2.484    2.520    35.853   
 535.600  2.579    3.050    35.783   
 535.800  2.581    2.885    35.853   
 536.000  2.575    2.481    35.978   
 536.200  2.548    2.402    36.612   
 536.400  2.516    2.160    37.226   
 536.600  2.484    1.934    36.799   
 536.800  2.462    2.157    36.550   
 537.000  2.452    2.670    36.258   
 537.200  2.422    3.027    36.718   
 537.400  2.450    3.054    37.612   
 537.600  2.360    2.343    37.725   
 537.800  2.364    1.793    37.545   
 538.000  2.484    1.663    37.524   
 538.200  2.419    1.731    37.475   
 538.400  2.419    1.663    37.843   
 538.600  2.484    1.820    38.099   
 538.800  2.448    1.959    37.849   
 539.000  2.548    1.871    37.792   
 539.200  2.617    1.630    37.554   
 539.400  2.815    1.561    37.700   
 539.600  3.044    1.690    37.725   
 539.800  3.210    1.968    37.832   
 540.000  2.548    2.036    37.600   
 540.200  2.323    2.123    37.535   
 540.400  2.544    2.115    37.849   
 540.600  2.806    2.131    37.974   
 540.800  2.806    3.258    37.600   
 541.000  2.781    5.041    36.706   
 541.200  3.043    7.897    35.978   
 541.400  3.226    7.842    36.040   
 541.600  3.245    6.673    36.561   
 541.800  3.290    5.504    37.456   
 542.000  3.135    4.335    38.101   
 542.200  2.873    3.165    37.577   
 542.400  2.680    1.996    36.352   
 542.600  2.806    1.717    35.545   
 542.800  2.742    1.527    34.519   
 543.000  2.613    1.669    34.714   
 543.200  2.595    1.799    35.234   
 543.400  2.667    1.847    35.630   
 543.600  2.800    2.086    35.307   
 543.800  2.965    2.533    34.232   
 544.000  3.097    2.877    34.391   
 544.200  3.097    3.084    35.465   
 544.400  3.055    3.088    35.721   
 544.600  3.013    2.813    35.326   
 544.800  3.065    2.749    35.654   
 545.000  3.085    2.783    36.299   
 545.200  3.097    2.749    36.602   
 545.400  3.065    2.715    36.466   
 545.600  3.000    2.715    36.362   
 545.800  3.065    2.743    36.883   
 546.000  3.097    2.882    37.528   
 546.200  3.161    2.986    37.600   
 546.400  3.161    3.060    38.069   
 546.600  3.181    2.986    38.964   
 546.800  3.250    2.919    39.583   
 547.000  3.226    2.952    39.879   
 547.200  3.130    2.952    39.291   
 547.400  3.161    2.927    38.272   
 547.600  3.169    2.889    37.725   
 547.800  3.194    2.885    38.348   
 548.000  3.194    2.851    38.458   
 548.200  3.148    2.809    38.510   
 548.400  3.161    2.896    38.847   
 548.600  3.102    2.986    38.972   
 548.800  3.097    2.933    38.622   
 549.000  3.000    2.760    38.348   
 549.200  3.039    2.681    38.348   
 549.400  3.139    2.752    38.059   
 549.600  3.240    2.681    37.974   
 549.800  3.341    2.822    38.348   
 550.000  3.387    3.079    38.701   
 550.200  3.323    2.804    39.097   
 550.400  3.228    2.495    39.076   
 550.600  3.161    2.477    38.681   
 550.800  3.161    2.385    38.536   
 551.000  3.258    2.313    38.723   
 551.200  3.304    2.544    38.492   
 551.400  3.355    2.647    38.097   
 551.600  3.355    2.674    37.600   
 551.800  3.355    2.929    37.725   
 552.000  3.261    3.103    37.541   
 552.200  3.226    3.242    37.937   
