~VERSION INFORMATION
 VERS.                          2.0 :CWLS LOG ASCII STANDARD [logix (c) Softland]
 WRAP.                          NO  : ONE LINE PER DEPTH STEP
~WELL INFORMATION
#MNEM.UNIT           DATA                         :DESCRIPTION
#----.----           ----------                      ----------------
 STRT.M    4.000                                   :START DEPTH
 STOP.M  656.000                                   :STOP  DEPTH
 STEP.M 0.200                                      :STEP
 NULL.  -99999.000                                 :NULL VALUE
 ALT.M    0.000                                    :KB or GL
 COMP.  Нефтяная компания                          :OIL COMPANY
 WELL.  65                                         :WELL
 FLD .  прямое                                     :FIELD
 LOC .                                             :LOCATION
 CTRY.                                             :COUNTRY
 SRVC.                                             :SERVICE COMPANY
 DATE.                                             :DATE
 API .                                             :API NUMBER
 UWI .                                             :UNIVERSAL WELL INDEX
~Curve Information Section
#MNEM.UNIT           API CODE                       Curve Description
#----.----           ----------                      ----------------
 DEPT.M                       :
 PZ.OHMM                            :
 GZ3.OHMM                            :
 PS.MV                            :
~A DEPT PZ.OHMM GZ3.OHMM PS.MV
# ...
 383.600  4.217    3.224    33.961   
 383.800  5.640    3.240    33.899   
 384.000  6.646    3.238    33.857   
 384.200  5.933    3.224    34.316   
 384.400  5.329    3.190    33.982   
 384.600  4.572    3.190    34.107   
 384.800  3.235    3.190    34.481   
 385.000  3.194    3.190    34.481   
 385.200  3.161    3.224    34.297   
 385.400  3.135    3.177    34.232   
 385.600  3.194    3.156    34.123   
 385.800  3.226    3.135    34.481   
 386.000  3.226    3.156    34.330   
 386.200  3.184    3.127    34.356   
 386.400  3.148    3.122    34.175   
 386.600  3.129    3.156    34.107   
 386.800  3.129    3.190    33.857   
 387.000  3.154    3.190    33.982   
 387.200  3.161    3.239    34.385   
 387.400  3.194    3.258    34.481   
 387.600  3.129    3.258    34.552   
 387.800  3.161    3.292    34.513   
 388.000  3.161    3.292    34.232   
 388.200  3.178    3.291    34.356   
 388.400  3.194    3.258    34.731   
 388.600  3.226    3.224    34.803   
 388.800  3.198    3.224    34.407   
 389.000  3.258    3.241    34.731   
 389.200  3.258    3.237    34.847   
 389.400  3.258    3.249    34.980   
 389.600  3.258    3.258    34.889   
 389.800  3.258    3.292    34.731   
 390.000  3.239    3.326    34.529   
 390.200  3.226    3.326    34.508   
 390.400  3.226    3.370    35.099   
 390.600  3.226    3.408    35.120   
 390.800  3.258    3.412    35.391   
 391.000  3.290    3.382    35.047   
 391.200  3.290    3.326    35.230   
 391.400  3.290    3.258    35.129   
 391.600  3.323    3.224    34.734   
 391.800  3.258    3.224    34.998   
 392.000  3.290    3.190    36.017   
 392.200  3.355    3.178    35.853   
 392.400  3.387    3.206    35.810   
 392.600  3.414    3.190    36.000   
 392.800  3.397    3.190    35.729   
 393.000  3.419    3.190    35.729   
 393.200  3.387    3.190    35.853   
 393.400  3.387    3.190    35.604   
 393.600  3.387    3.184    35.564   
 393.800  3.387    3.156    35.248   
 394.000  3.387    3.156    35.107   
 394.200  3.424    3.156    35.877   
 394.400  3.419    3.156    36.228   
 394.600  3.419    3.190    36.352   
 394.800  3.419    3.224    36.564   
 395.000  3.419    3.257    36.618   
 395.200  3.419    3.261    36.223   
 395.400  3.387    3.292    35.604   
 395.600  3.355    3.326    35.604   
 395.800  3.387    3.360    35.797   
 396.000  3.355    3.360    35.943   
 396.200  3.387    3.326    36.089   
 396.400  3.387    3.265    36.345   
 396.600  3.387    3.227    36.103   
 396.800  3.452    3.190    35.429   
 397.000  3.452    3.156    35.283   
 397.200  3.452    3.156    35.322   
 397.400  3.416    3.169    35.468   
 397.600  3.412    3.156    35.729   
 397.800  3.355    3.156    35.853   
 398.000  3.402    3.190    35.978   
 398.200  3.470    3.258    35.904   
 398.400  3.603    3.326    35.758   
 398.600  3.639    3.360    35.479   
 398.800  3.583    3.394    35.354   
 399.000  3.516    3.394    34.855   
 399.200  3.484    3.345    34.924   
 399.400  3.419    3.326    35.431   
 399.600  3.465    3.280    35.452   
 399.800  3.452    3.258    35.609   
 400.000  3.484    3.194    35.994   
 400.200  3.606    3.190    36.190   
 400.400  3.581    3.190    36.161   
 400.600  3.646    3.190    36.352   
 400.800  3.613    3.224    36.477   
 401.000  3.581    3.258    36.106   
 401.200  3.548    3.346    36.084   
 401.400  3.581    3.394    35.978   
 401.600  3.613    3.462    36.103   
 401.800  3.613    3.561    35.853   
 402.000  3.581    3.561    35.625   
 402.200  3.613    3.462    35.479   
 402.400  3.677    3.394    35.230   
 402.600  3.750    3.346    35.686   
 402.800  3.774    3.394    35.293   
 403.000  3.726    3.394    35.439   
 403.200  3.690    3.368    35.747   
 403.400  3.677    3.258    35.479   
 403.600  3.705    3.258    35.354   
 403.800  3.677    3.258    35.275   
 404.000  3.710    3.292    35.354   
 404.200  3.742    3.337    35.604   
 404.400  3.710    3.428    35.729   
 404.600  3.695    3.481    35.729   
 404.800  3.677    3.587    35.853   
 405.000  3.655    3.659    35.853   
 405.200  3.645    3.665    35.673   
 405.400  3.645    3.698    35.853   
 405.600  3.643    3.631    35.479   
 405.800  3.581    3.563    35.362   
 406.000  3.581    3.529    35.450   
 406.200  3.562    3.478    35.230   
 406.400  3.548    3.517    35.230   
 406.600  3.602    3.555    35.230   
 406.800  3.613    3.529    35.729   
 407.000  3.645    3.597    35.853   
 407.200  3.679    3.634    35.821   
 407.400  3.710    3.699    35.657   
 407.600  3.719    3.665    35.529   
 407.800  3.710    3.665    35.479   
 408.000  3.645    3.631    35.596   
 408.200  3.645    3.597    35.492   
 408.400  3.588    3.563    35.354   
 408.600  3.613    3.563    35.354   
 408.800  3.645    3.529    35.277   
 409.000  3.677    3.495    35.230   
 409.200  3.710    3.462    35.479   
 409.400  3.677    3.462    35.370   
 409.600  3.661    3.428    35.230   
 409.800  3.645    3.428    35.288   
 410.000  3.613    3.428    35.185   
 410.200  3.613    3.462    35.604   
 410.400  3.581    3.495    35.604   
 410.600  3.613    3.532    35.872   
 410.800  3.606    3.563    35.813   
 411.000  3.592    3.563    35.978   
 411.200  3.598    3.529    35.729   
 411.400  3.600    3.477    35.604   
 411.600  3.613    3.372    35.479   
 411.800  3.645    3.326    35.230   
 412.000  3.645    3.296    35.397   
 412.200  3.645    3.292    35.479   
 412.400  3.639    3.292    35.440   
 412.600  3.613    3.292    35.123   
 412.800  3.627    3.258    35.102   
 413.000  3.613    3.242    35.354   
 413.200  3.635    3.190    34.980   
 413.400  3.645    3.190    35.171   
 413.600  3.645    3.230    35.479   
 413.800  3.711    3.358    35.604   
 414.000  3.747    3.462    35.604   
 414.200  3.742    3.535    35.452   
 414.400  3.742    3.597    35.306   
 414.600  3.710    3.584    35.105   
 414.800  3.689    3.495    34.855   
 415.000  3.677    3.440    34.494   
 415.200  3.645    3.394    34.855   
 415.400  3.613    3.360    34.386   
 415.600  3.645    3.326    34.356   
 415.800  3.613    3.326    34.428   
 416.000  3.613    3.360    34.481   
 416.200  3.581    3.394    34.481   
 416.400  3.581    3.360    34.606   
 416.600  3.548    3.326    34.855   
 416.800  3.544    3.326    34.428   
 417.000  3.517    3.428    34.431   
 417.200  3.545    3.430    34.260   
 417.400  3.484    3.394    34.606   
 417.600  3.484    3.433    34.606   
 417.800  3.452    3.572    34.232   
 418.000  3.452    3.631    34.413   
 418.200  3.396    3.546    34.559   
 418.400  3.387    3.584    34.757   
 418.600  3.419    3.606    34.860   
 418.800  3.387    3.597    35.121   
 419.000  3.387    3.983    35.230   
 419.200  3.419    4.110    35.288   
 419.400  3.484    3.729    35.230   
 419.600  3.466    3.349    35.128   
 419.800  3.452    3.020    35.105   
 420.000  3.484    3.005    34.711   
 420.200  3.514    2.952    34.606   
 420.400  3.482    2.952    34.731   
 420.600  3.452    3.020    35.063   
 420.800  3.419    3.123    35.458   
 421.000  3.419    3.194    35.480   
 421.200  3.387    3.300    35.853   
 421.400  3.387    3.406    35.853   
 421.600  3.387    3.512    35.664   
 421.800  3.358    3.563    35.893   
 422.000  3.419    3.607    35.230   
 422.200  3.484    3.569    35.354   
 422.400  3.484    3.529    35.105   
 422.600  3.548    3.498    34.855   
 422.800  3.516    3.535    34.423   
 423.000  3.528    3.573    34.232   
 423.200  3.492    3.597    34.232   
 423.400  3.512    3.597    34.238   
 423.600  3.484    3.508    34.356   
 423.800  3.484    3.470    34.433   
 424.000  3.484    3.398    34.606   
 424.200  3.548    3.326    34.481   
 424.400  3.581    3.329    34.356   
 424.600  3.600    3.258    34.232   
 424.800  3.613    3.269    34.202   
 425.000  3.581    3.292    34.481   
 425.200  3.613    3.326    34.356   
 425.400  3.581    3.360    33.982   
 425.600  3.581    3.394    34.117   
