~VERSION INFORMATION
 VERS.                          2.0 :CWLS LOG ASCII STANDARD [logix (c) Softland]
 WRAP.                          NO  : ONE LINE PER DEPTH STEP
~WELL INFORMATION
#MNEM.UNIT           DATA                         :DESCRIPTION
#----.----           ----------                      ----------------
 STRT.M    4.000                                   :START DEPTH
 STOP.M  656.000                                   :STOP  DEPTH
 STEP.M 0.200                                      :STEP
 NULL.  -99999.000                                 :NULL VALUE
 ALT.M    0.000                                    :KB or GL
 COMP.  Нефтяная компания                          :OIL COMPANY
 WELL.  65                                         :WELL
 FLD .  прямое                                     :FIELD
 LOC .                                             :LOCATION
 CTRY.                                             :COUNTRY
 SRVC.                                             :SERVICE COMPANY
 DATE.                                             :DATE
 API .                                             :API NUMBER
 UWI .                                             :UNIVERSAL WELL INDEX
~Curve Information Section
#MNEM.UNIT           API CODE                       Curve Description
#----.----           ----------                      ----------------
 DEPT.M                       :
 PZ.OHMM                            :
 GZ3.OHMM                            :
 PS.MV                            :
~A DEPT PZ.OHMM GZ3.OHMM PS.MV
# ...
 299.200  28.303   25.866   59.844   
 299.400  30.190   23.107   59.681   
 299.600  31.134   19.934   59.182   
 299.800  32.078   20.894   59.057   
 300.000  30.570   22.797   59.181   
 300.200  27.675   24.701   57.157   
 300.400  25.000   22.700   54.191   
 300.600  25.000   18.156   51.225   
 300.800  25.000   20.098   48.258   
 301.000  22.437   22.954   56.295   
 301.200  19.360   25.809   55.749   
 301.400  16.283   27.219   49.565   
 301.600  21.761   27.008   43.381   
 301.800  27.690   25.299   38.158   
 302.000  33.065   23.360   38.348   
 302.200  30.649   23.258   38.581   
 302.400  30.446   22.220   38.593   
 302.600  29.788   21.182   38.099   
 302.800  26.163   22.277   38.099   
 303.000  25.920   22.738   38.224   
 303.200  23.158   23.083   38.438   
 303.400  22.608   24.230   38.847   
 303.600  24.118   25.277   38.466   
 303.800  25.806   25.957   38.320   
 304.000  26.036   26.637   38.099   
 304.200  26.129   27.316   37.849   
 304.400  26.345   27.996   37.974   
 304.600  23.260   24.605   38.110   
 304.800  21.144   20.938   38.224   
 305.000  19.673   23.758   37.974   
 305.200  19.170   26.579   37.974   
 305.400  19.032   27.677   37.974   
 305.600  15.386   23.777   38.443   
 305.800  12.175   19.877   38.357   
 306.000  8.226    19.121   38.086   
 306.200  15.968   17.920   37.974   
 306.400  14.213   13.991   37.725   
 306.600  9.678    10.943   37.725   
 306.800  5.948    12.530   37.627   
 307.000  5.323    11.935   37.968   
 307.200  5.000    9.593    37.974   
 307.400  4.839    7.757    37.974   
 307.600  4.741    7.296    37.849   
 307.800  4.677    7.263    38.099   
 308.000  4.839    7.010    37.849   
 308.200  4.839    7.127    38.220   
 308.400  5.000    6.957    37.974   
 308.600  5.161    6.675    37.600   
 308.800  5.000    6.655    37.101   
 309.000  5.484    6.278    36.976   
 309.200  5.484    6.278    37.101   
 309.400  5.596    6.257    37.475   
 309.600  5.191    6.109    37.600   
 309.800  5.000    6.109    37.184   
 310.000  5.000    5.939    36.976   
 310.200  5.000    5.939    36.976   
 310.400  4.951    6.109    37.226   
 310.600  4.839    6.249    37.101   
 310.800  5.088    6.099    36.976   
 311.000  4.892    5.939    36.931   
 311.200  4.805    5.769    36.851   
 311.400  4.839    5.949    37.063   
 311.600  5.323    5.769    37.226   
 311.800  5.323    5.769    37.480   
 312.000  5.645    5.709    37.823   
 312.200  5.484    5.357    37.178   
 312.400  5.484    5.600    36.727   
 312.600  5.381    6.006    36.976   
 312.800  5.161    5.627    36.865   
 313.000  5.000    5.246    36.976   
 313.200  5.000    4.866    37.226   
 313.400  5.141    4.785    37.725   
 313.600  4.960    4.785    37.029   
 313.800  5.000    4.465    37.193   
 314.000  4.857    4.095    36.737   
 314.200  4.568    4.072    36.716   
 314.400  4.645    4.031    36.602   
 314.600  4.613    3.908    36.352   
 314.800  4.549    4.013    36.403   
 315.000  4.384    4.449    36.448   
 315.200  4.258    4.886    36.727   
 315.400  4.194    4.658    36.976   
 315.600  4.241    4.306    36.976   
 315.800  4.341    4.158    36.851   
 316.000  4.364    4.028    36.602   
 316.200  4.232    3.903    36.477   
 316.400  4.131    3.869    36.596   
 316.600  4.062    3.835    36.960   
 316.800  4.026    3.801    36.976   
 317.000  3.968    3.835    37.226   
 317.200  4.032    3.892    37.101   
 317.400  4.115    3.929    37.000   
 317.600  4.129    3.937    36.979   
 317.800  4.097    3.971    36.833   
 318.000  4.032    4.005    36.602   
 318.200  4.000    3.971    36.602   
 318.400  3.968    3.971    36.933   
 318.600  3.977    3.971    36.873   
 318.800  4.032    3.916    37.226   
 319.000  4.065    3.878    37.204   
 319.200  4.000    3.869    37.101   
 319.400  3.935    3.835    37.226   
 319.600  3.842    3.832    37.475   
 319.800  3.806    3.739    37.244   
 320.000  3.774    3.723    37.103   
 320.200  3.774    3.733    36.976   
 320.400  3.806    3.733    37.101   
 320.600  3.839    3.733    37.226   
 320.800  3.859    3.759    36.727   
 321.000  3.871    3.801    36.727   
 321.200  3.935    3.869    36.857   
 321.400  4.000    3.941    36.976   
 321.600  4.000    3.971    36.976   
 321.800  3.993    4.038    37.032   
 322.000  3.968    4.072    37.440   
 322.200  3.903    4.072    37.725   
 322.400  3.903    4.072    37.600   
 322.600  3.903    4.011    36.976   
 322.800  3.930    3.971    36.727   
 323.000  3.968    3.969    37.029   
 323.200  4.032    3.903    36.851   
 323.400  4.065    3.903    36.602   
 323.600  4.065    3.835    36.851   
 323.800  4.065    3.817    37.133   
 324.000  3.692    3.801    37.475   
 324.200  3.764    3.776    37.600   
 324.400  3.832    3.767    37.600   
 324.600  3.903    3.767    37.717   
 324.800  3.903    3.767    37.475   
 325.000  3.935    3.767    36.976   
 325.200  3.871    3.767    37.032   
 325.400  3.826    3.782    37.273   
 325.600  3.806    3.801    37.101   
 325.800  3.774    3.767    36.976   
 326.000  3.806    3.733    36.851   
 326.200  3.835    3.801    36.976   
 326.400  3.871    3.835    37.159   
 326.600  3.806    3.835    37.520   
 326.800  3.774    3.801    37.125   
 327.000  3.851    3.767    36.729   
 327.200  3.871    3.699    36.870   
 327.400  3.871    3.733    36.727   
 327.600  3.806    3.792    36.665   
 327.800  3.742    3.801    36.395   
 328.000  3.710    3.801    36.331   
 328.200  3.713    3.770    36.727   
 328.400  3.742    3.733    37.101   
 328.600  3.818    3.767    37.183   
 328.800  3.951    3.767    36.912   
 329.000  4.065    3.767    36.641   
 329.200  4.009    3.767    36.620   
 329.400  3.876    3.733    36.602   
 329.600  3.840    3.733    36.851   
 329.800  3.970    3.767    37.101   
 330.000  4.168    3.873    37.226   
 330.200  4.301    3.945    37.350   
 330.400  4.276    3.937    37.116   
 330.600  4.308    3.869    36.976   
 330.800  4.506    3.781    37.074   
 331.000  4.710    3.733    36.976   
 331.200  4.519    3.727    37.226   
 331.400  4.644    3.765    37.350   
 331.600  3.995    3.835    37.350   
 331.800  3.668    3.795    37.093   
 332.000  3.632    3.743    36.947   
 332.200  3.695    3.767    36.727   
 332.400  3.774    4.056    36.799   
 332.600  3.806    4.424    36.976   
 332.800  3.871    4.709    37.101   
 333.000  3.806    4.755    36.965   
 333.200  3.940    4.310    36.445   
 333.400  4.073    3.865    35.978   
 333.600  4.323    3.631    36.228   
 333.800  4.274    3.597    35.882   
 334.000  4.000    3.563    35.853   
 334.200  3.879    3.578    35.853   
 334.400  3.710    3.563    35.763   
 334.600  3.710    3.597    36.421   
 334.800  3.745    3.631    36.103   
 335.000  3.774    3.665    36.004   
 335.200  3.786    3.704    35.853   
 335.400  3.791    3.588    35.994   
 335.600  3.742    3.495    36.103   
 335.800  3.677    3.529    36.228   
 336.000  3.650    3.495    36.432   
 336.200  3.613    3.470    36.851   
 336.400  3.613    3.529    36.602   
 336.600  3.587    3.529    36.458   
 336.800  3.677    3.529    36.312   
 337.000  3.724    3.495    36.041   
 337.200  3.792    3.529    36.228   
 337.400  3.925    3.578    36.103   
 337.600  4.129    3.650    36.103   
 337.800  4.191    3.722    36.103   
 338.000  3.998    3.801    36.434   
 338.200  3.898    3.835    36.416   
 338.400  3.774    3.869    36.267   
 338.600  3.710    3.869    35.978   
 338.800  3.710    3.860    35.729   
 339.000  3.763    3.835    35.579   
 339.200  3.774    3.835    35.604   
 339.400  3.742    3.801    35.729   
 339.600  3.677    3.835    35.230   
 339.800  3.613    3.863    35.230   
 340.000  3.548    3.869    35.354   
 340.200  3.593    3.866    35.604   
 340.400  3.645    3.835    36.026   
 340.600  3.593    3.767    36.228   
 340.800  3.605    3.719    36.352   
 341.000  3.585    3.699    36.240   
 341.200  3.516    3.665    35.853   
