~VERSION INFORMATION
 VERS.                          2.0 :CWLS LOG ASCII STANDARD [logix (c) Softland]
 WRAP.                          NO  : ONE LINE PER DEPTH STEP
~WELL INFORMATION
#MNEM.UNIT           DATA                         :DESCRIPTION
#----.----           ----------                      ----------------
 STRT.M    4.000                                   :START DEPTH
 STOP.M  656.000                                   :STOP  DEPTH
 STEP.M 0.200                                      :STEP
 NULL.  -99999.000                                 :NULL VALUE
 ALT.M    0.000                                    :KB or GL
 COMP.  Нефтяная компания                          :OIL COMPANY
 WELL.  65                                         :WELL
 FLD .  прямое                                     :FIELD
 LOC .                                             :LOCATION
 CTRY.                                             :COUNTRY
 SRVC.                                             :SERVICE COMPANY
 DATE.                                             :DATE
 API .                                             :API NUMBER
 UWI .                                             :UNIVERSAL WELL INDEX
~Curve Information Section
#MNEM.UNIT           API CODE                       Curve Description
#----.----           ----------                      ----------------
 DEPT.M                       :
 PZ.OHMM                            :
 GZ3.OHMM                            :
 PS.MV                            :
~A DEPT PZ.OHMM GZ3.OHMM PS.MV
# ...
 594.600  2.686    2.978    37.068   
 594.800  2.677    2.635    37.088   
 595.000  2.645    2.595    36.636   
 595.200  2.710    2.559    36.312   
 595.400  2.677    2.511    37.182   
 595.600  2.677    2.539    37.725   
 595.800  2.725    2.378    37.725   
 596.000  2.742    2.174    38.348   
 596.200  2.797    2.280    37.849   
 596.400  2.903    2.443    37.808   
 596.600  2.840    2.491    37.537   
 596.800  2.675    2.579    37.766   
 597.000  2.716    2.635    37.475   
 597.200  2.839    2.681    37.474   
 597.400  2.839    3.464    36.954   
 597.600  2.903    4.691    36.477   
 597.800  2.871    4.035    36.667   
 598.000  2.813    2.568    36.976   
 598.200  2.869    2.409    36.834   
 598.400  2.869    2.334    36.730   
 598.600  2.736    2.281    37.350   
 598.800  2.539    2.219    37.725   
 599.000  3.019    2.156    37.917   
 599.200  5.333    2.092    39.310   
 599.400  7.821    2.001    39.346   
 599.600  10.338   1.895    39.977   
 599.800  11.685   1.790    40.095   
 600.000  10.144   1.684    40.171   
 600.200  8.604    1.578    38.348   
 600.400  7.352    1.555    37.758   
 600.600  9.229    1.607    36.739   
 600.800  11.105   1.781    36.602   
 601.000  12.982   2.036    36.882   
 601.200  12.953   2.292    36.800   
 601.400  11.430   2.547    35.926   
 601.600  9.907    2.613    35.759   
 601.800  12.264   2.836    35.479   
 602.000  12.075   4.440    35.479   
 602.200  10.874   6.044    35.729   
 602.400  9.673    7.648    35.853   
 602.600  8.472    8.167    35.929   
 602.800  7.087    6.004    35.978   
 603.000  5.090    3.842    35.729   
 603.200  3.671    3.220    35.978   
 603.400  3.548    4.904    36.139   
 603.600  3.523    6.589    36.228   
 603.800  3.785    8.274    36.228   
 604.000  4.047    9.958    36.352   
 604.200  4.078    8.468    36.473   
 604.400  4.055    6.656    36.869   
 604.600  4.194    4.844    37.264   
 604.800  4.034    3.031    40.283   
 605.000  3.805    1.376    45.498   
 605.200  3.877    1.218    50.714   
 605.400  3.977    1.086    55.929   
 605.600  3.949    1.268    61.145   
 605.800  3.953    1.383    58.955   
 606.000  3.871    1.625    46.525   
 606.200  3.928    1.867    36.873   
 606.400  3.906    2.220    37.565   
 606.600  3.580    2.543    38.257   
 606.800  3.355    2.867    37.951   
 607.000  3.364    3.191    36.558   
 607.200  3.278    3.515    36.038   
 607.400  3.209    3.767    36.064   
 607.600  3.343    3.767    36.352   
 607.800  3.605    3.805    36.232   
 608.000  3.774    3.932    37.500   
 608.200  3.839    3.971    37.849   
 608.400  3.867    3.946    38.280   
 608.600  3.476    3.923    36.263   
 608.800  3.548    3.937    36.088   
 609.000  4.080    3.712    36.345   
 609.200  4.439    3.572    36.574   
 609.400  4.590    3.529    36.178   
 609.600  4.769    3.713    35.853   
 609.800  5.161    4.083    35.820   
 610.000  5.548    4.453    35.604   
 610.200  5.813    4.922    35.095   
 610.400  6.204    5.025    34.980   
 610.600  6.498    4.662    34.783   
 610.800  6.723    4.384    34.855   
 611.000  6.571    4.410    34.980   
 611.200  6.542    4.412    35.345   
 611.400  6.583    4.554    35.467   
 611.600  6.583    4.988    35.321   
 611.800  6.909    5.421    35.159   
 612.000  7.042    5.803    35.305   
 612.200  7.097    5.769    35.826   
 612.400  7.147    5.790    36.096   
 612.600  7.280    5.963    35.729   
 612.800  7.283    6.341    35.942   
 613.000  7.261    6.550    36.602   
 613.200  6.969    6.378    36.930   
 613.400  6.935    6.272    36.876   
 613.600  7.009    6.210    37.097   
 613.800  7.000    5.925    37.083   
 614.000  7.049    5.923    36.563   
 614.200  7.032    6.414    36.167   
 614.400  7.000    6.618    36.021   
 614.600  6.649    6.885    36.205   
 614.800  6.419    7.363    36.726   
 615.000  6.125    6.623    38.224   
 615.200  5.734    5.883    38.224   
 615.400  5.537    5.142    37.787   
 615.600  5.725    5.183    37.809   
 615.800  6.116    6.100    38.473   
 616.000  6.105    7.017    37.849   
 616.200  6.318    7.370    37.078   
 616.400  6.646    7.532    36.059   
 616.600  6.449    7.323    35.663   
 616.800  5.929    6.944    36.016   
 617.000  5.817    6.747    36.120   
 617.200  6.015    8.162    35.978   
 617.400  6.309    9.576    36.378   
 617.600  6.397    9.953    36.352   
 617.800  6.414    9.389    36.352   
 618.000  6.579    8.825    36.477   
 618.200  6.772    8.261    36.228   
 618.400  6.349    7.697    36.235   
 618.600  6.097    7.133    36.477   
 618.800  6.051    6.569    36.303   
 619.000  5.985    6.550    36.727   
 619.200  6.151    6.531    36.819   
 619.400  6.413    6.132    36.477   
 619.600  6.516    6.014    36.352   
 619.800  6.548    5.908    36.352   
 620.000  6.543    5.768    36.280   
 620.200  6.249    5.662    36.352   
 620.400  6.013    5.769    36.447   
 620.600  6.243    5.837    36.843   
 620.800  6.505    5.990    38.985   
 621.000  6.767    6.156    40.503   
 621.200  6.706    6.050    41.148   
 621.400  7.032    6.137    40.642   
 621.600  6.996    6.144    37.378   
 621.800  6.605    6.106    37.095   
 622.000  6.270    6.285    36.711   
 622.200  6.467    6.526    35.193   
 622.400  6.600    6.700    35.172   
 622.600  6.589    6.855    35.230   
 622.800  6.581    6.799    35.129   
 623.000  6.612    6.176    34.734   
 623.200  6.713    6.648    34.481   
 623.400  6.606    7.160    34.481   
 623.600  6.785    6.613    34.481   
 623.800  6.921    6.176    34.937   
 624.000  7.013    5.791    35.582   
 624.200  7.097    5.718    35.853   
 624.400  6.812    5.749    35.708   
 624.600  6.389    5.827    35.354   
 624.800  6.311    5.701    35.042   
 625.000  6.747    5.432    34.606   
 625.200  7.183    5.464    34.836   
 625.400  7.258    5.707    35.356   
 625.600  6.905    5.915    35.580   
 625.800  6.764    5.953    35.524   
 626.000  6.645    6.059    34.855   
 626.200  6.613    5.985    35.018   
 626.400  6.614    5.829    34.872   
 626.600  6.650    5.909    34.855   
 626.800  6.733    5.837    34.829   
 627.000  6.645    5.856    35.027   
 627.200  6.596    6.838    35.105   
 627.400  6.634    8.001    35.230   
 627.600  6.491    9.165    35.354   
 627.800  6.355    9.909    35.596   
 628.000  6.355    8.802    35.230   
 628.200  6.484    7.696    35.055   
 628.400  6.452    6.590    34.731   
 628.600  6.407    5.498    34.855   
 628.800  6.371    5.430    35.354   
 629.000  6.568    5.541    35.729   
 629.200  6.677    5.735    35.760   
 629.400  6.677    5.769    35.978   
 629.600  6.999    5.633    35.729   
 629.800  6.868    5.659    35.384   
 630.000  6.509    5.803    35.845   
 630.200  6.344    5.803    35.716   
 630.400  6.273    5.803    35.105   
 630.600  6.387    5.878    35.035   
 630.800  6.171    5.973    34.903   
 631.000  6.032    5.992    34.731   
 631.200  6.289    6.075    34.974   
 631.400  6.191    6.176    35.230   
 631.600  6.361    6.210    35.230   
 631.800  6.484    6.146    35.047   
 632.000  6.341    6.788    35.184   
 632.200  6.111    8.249    35.354   
 632.400  5.871    8.710    35.726   
 632.600  5.845    7.568    35.479   
 632.800  5.774    6.425    35.190   
 633.000  6.130    5.880    35.294   
 633.200  6.290    5.898    34.898   
 633.400  6.152    6.128    34.752   
 633.600  6.019    6.505    34.855   
 633.800  5.985    6.781    35.250   
 634.000  6.290    6.860    35.811   
 634.200  6.265    6.939    35.416   
 634.400  5.810    6.588    35.105   
 634.600  5.645    6.112    34.980   
 634.800  5.479    6.275    35.230   
 635.000  5.379    6.530    35.004   
 635.200  5.323    6.724    35.399   
 635.400  5.258    6.918    36.418   
 635.600  5.472    7.111    37.188   
 635.800  5.484    7.006    37.334   
 636.000  5.871    6.446    37.979   
 636.200  6.258    5.885    38.571   
 636.400  5.867    5.436    38.396   
 636.600  5.412    5.472    36.602   
