~VERSION INFORMATION
 VERS.                          2.0 :CWLS LOG ASCII STANDARD [logix (c) Softland]
 WRAP.                          NO  : ONE LINE PER DEPTH STEP
~WELL INFORMATION
#MNEM.UNIT           DATA                         :DESCRIPTION
#----.----           ----------                      ----------------
 STRT.M    4.000                                   :START DEPTH
 STOP.M  656.000                                   :STOP  DEPTH
 STEP.M 0.200                                      :STEP
 NULL.  -99999.000                                 :NULL VALUE
 ALT.M    0.000                                    :KB or GL
 COMP.  Нефтяная компания                          :OIL COMPANY
 WELL.  65                                         :WELL
 FLD .  прямое                                     :FIELD
 LOC .                                             :LOCATION
 CTRY.                                             :COUNTRY
 SRVC.                                             :SERVICE COMPANY
 DATE.                                             :DATE
 API .                                             :API NUMBER
 UWI .                                             :UNIVERSAL WELL INDEX
~Curve Information Section
#MNEM.UNIT           API CODE                       Curve Description
#----.----           ----------                      ----------------
 DEPT.M                       :
 PZ.OHMM                            :
 GZ3.OHMM                            :
 PS.MV                            :
~A DEPT PZ.OHMM GZ3.OHMM PS.MV
# ...
 341.400  3.484    3.631    35.604   
 341.600  3.476    3.597    35.655   
 341.800  3.850    3.631    35.532   
 342.000  3.968    3.665    35.604   
 342.200  3.923    3.673    35.604   
 342.400  3.806    3.733    35.230   
 342.600  3.683    3.767    35.230   
 342.800  3.613    3.713    35.479   
 343.000  3.642    3.699    35.479   
 343.200  3.606    3.699    35.604   
 343.400  3.656    3.699    35.596   
 343.600  4.111    3.697    35.604   
 343.800  4.631    3.699    35.639   
 344.000  4.943    3.709    35.604   
 344.200  4.501    3.767    35.557   
 344.400  3.911    3.801    35.952   
 344.600  3.681    3.835    35.858   
 344.800  3.638    3.903    35.837   
 345.000  3.613    3.966    35.729   
 345.200  3.562    4.038    35.788   
 345.400  3.613    4.069    35.523   
 345.600  3.581    3.997    35.581   
 345.800  3.613    3.925    35.853   
 346.000  3.674    3.835    35.729   
 346.200  3.710    3.782    35.978   
 346.400  3.742    3.642    35.790   
 346.600  3.742    3.699    35.770   
 346.800  3.742    3.764    35.209   
 347.000  3.710    3.767    35.105   
 347.200  3.613    3.762    35.479   
 347.400  3.581    3.699    35.479   
 347.600  3.609    3.678    35.165   
 347.800  3.581    3.716    34.980   
 348.000  3.548    3.733    35.230   
 348.200  3.484    3.767    35.483   
 348.400  3.496    3.733    35.853   
 348.600  3.628    3.599    35.978   
 348.800  3.665    3.430    35.786   
 349.000  3.677    3.285    35.640   
 349.200  3.710    3.167    34.995   
 349.400  3.678    3.171    34.980   
 349.600  3.742    3.715    34.855   
 349.800  3.742    4.038    34.731   
 350.000  3.699    3.869    34.855   
 350.200  3.677    3.465    34.855   
 350.400  3.677    3.292    34.980   
 350.600  3.687    3.258    35.105   
 350.800  3.613    3.258    35.479   
 351.000  3.677    3.292    35.479   
 351.200  3.677    3.308    35.157   
 351.400  3.677    3.326    35.105   
 351.600  3.677    3.360    34.865   
 351.800  3.677    3.422    35.105   
 352.000  3.710    3.459    35.072   
 352.200  3.710    3.462    34.980   
 352.400  3.710    3.490    34.855   
 352.600  3.710    3.418    34.855   
 352.800  3.743    3.346    34.738   
 353.000  3.774    3.326    34.731   
 353.200  3.742    3.292    34.891   
 353.400  3.690    3.292    35.037   
 353.600  3.742    3.258    35.105   
 353.800  3.742    3.292    35.329   
 354.000  3.717    3.326    35.729   
 354.200  3.710    3.394    35.853   
 354.400  3.645    3.462    35.729   
 354.600  3.581    3.446    35.913   
 354.800  3.581    3.408    35.479   
 355.000  3.581    3.326    35.479   
 355.200  3.596    3.292    35.604   
 355.400  3.613    3.292    35.335   
 355.600  3.669    3.326    34.939   
 355.800  3.742    3.360    34.793   
 356.000  3.742    3.326    34.647   
 356.200  3.742    3.279    34.710   
 356.400  3.735    3.258    35.354   
 356.600  3.710    3.203    35.252   
 356.800  3.710    3.199    34.855   
 357.000  3.728    3.127    35.045   
 357.200  3.719    3.054    35.191   
 357.400  3.710    3.054    35.105   
 357.600  3.710    3.061    35.354   
 357.800  3.708    3.133    35.230   
 358.000  3.575    3.258    35.230   
 358.200  3.623    3.344    34.788   
 358.400  3.677    3.484    35.069   
 358.600  3.581    3.529    34.731   
 358.800  3.613    3.597    35.230   
 359.000  3.587    3.530    35.230   
 359.200  3.645    3.500    35.430   
 359.400  3.677    3.470    35.729   
 359.600  3.645    3.576    35.945   
 359.800  3.710    3.614    35.604   
 360.000  3.710    3.577    35.363   
 360.200  3.710    3.462    35.105   
 360.400  3.742    3.394    35.032   
 360.600  3.685    3.361    35.281   
 360.800  3.677    3.394    34.980   
 361.000  3.742    3.428    35.095   
 361.200  3.839    3.404    35.230   
 361.400  3.903    3.360    35.321   
 361.600  3.956    3.274    34.980   
 361.800  3.791    3.292    34.980   
 362.000  3.581    3.394    35.077   
 362.200  3.581    3.525    35.230   
 362.400  3.585    3.563    34.995   
 362.600  3.593    3.458    35.105   
 362.800  3.601    3.386    35.105   
 363.000  3.608    3.428    35.027   
 363.200  3.645    3.647    34.731   
 363.400  3.692    3.753    35.105   
 363.600  3.710    3.743    34.855   
 363.800  3.677    3.638    34.270   
 364.000  3.677    3.498    34.606   
 364.200  3.647    3.529    34.606   
 364.400  3.647    3.592    34.379   
 364.600  3.645    3.520    34.480   
 364.800  3.645    3.394    34.731   
 365.000  3.677    3.309    34.896   
 365.200  3.677    3.449    35.417   
 365.400  3.677    3.826    35.313   
 365.600  3.645    4.271    35.459   
 365.800  3.677    4.514    35.105   
 366.000  3.679    4.035    34.855   
 366.200  3.677    3.665    35.105   
 366.400  3.677    3.484    34.920   
 366.600  3.677    3.311    34.644   
 366.800  3.694    3.273    34.713   
 367.000  3.731    3.258    34.851   
 367.200  3.677    3.265    34.756   
 367.400  3.645    3.357    34.980   
 367.600  3.645    3.394    34.731   
 367.800  3.645    3.495    34.820   
 368.000  3.637    3.529    34.716   
 368.200  3.601    3.483    34.855   
 368.400  3.613    3.478    34.855   
 368.600  3.613    3.475    34.681   
 368.800  3.589    3.486    34.606   
 369.000  3.581    3.394    34.232   
 369.200  3.581    3.360    34.481   
 369.400  3.548    3.360    34.481   
 369.600  3.581    3.360    34.232   
 369.800  3.581    3.394    34.554   
 370.000  3.581    3.428    34.232   
 370.200  3.581    3.428    34.232   
 370.400  3.558    3.428    34.606   
 370.600  3.548    3.386    34.743   
 370.800  3.516    3.296    34.822   
 371.000  3.484    3.258    34.731   
 371.200  3.484    3.262    34.904   
 371.400  3.484    3.258    34.481   
 371.600  3.502    3.292    34.481   
 371.800  3.516    3.326    34.356   
 372.000  3.581    3.346    34.320   
 372.200  3.613    3.360    34.232   
 372.400  3.613    3.326    34.232   
 372.600  3.611    3.292    34.356   
 372.800  3.581    3.328    34.356   
 373.000  3.516    3.394    34.463   
 373.200  3.516    3.428    34.356   
 373.400  3.565    3.414    34.481   
 373.600  3.634    3.326    34.937   
 373.800  3.645    3.292    35.083   
 374.000  3.677    3.300    34.732   
 374.200  3.645    3.457    34.232   
 374.400  3.645    3.631    34.232   
 374.600  3.613    3.838    34.356   
 374.800  3.613    3.929    34.356   
 375.000  3.597    3.790    34.481   
 375.200  3.581    3.514    34.232   
 375.400  3.605    3.239    34.255   
 375.600  3.581    3.010    34.356   
 375.800  3.517    3.048    34.107   
 376.000  3.577    3.258    33.982   
 376.200  3.541    3.326    33.982   
 376.400  3.516    3.117    33.608   
 376.600  3.531    3.011    33.733   
 376.800  3.516    2.966    33.904   
 377.000  3.516    3.377    34.175   
 377.200  3.548    3.584    34.446   
 377.400  3.612    3.640    34.481   
 377.600  4.422    3.728    34.356   
 377.800  4.613    3.868    34.203   
 378.000  4.278    3.561    33.808   
 378.200  3.699    3.217    33.608   
 378.400  3.452    3.269    33.982   
 378.600  3.452    3.442    33.857   
 378.800  3.355    3.616    33.857   
 379.000  3.355    3.643    33.888   
 379.200  3.419    3.665    33.982   
 379.400  3.457    3.764    33.982   
 379.600  3.558    3.597    34.202   
 379.800  3.562    3.423    34.232   
 380.000  3.548    3.326    34.606   
 380.200  3.484    3.292    34.447   
 380.400  3.394    3.308    34.426   
 380.600  3.416    3.326    34.031   
 380.800  3.483    3.384    34.079   
 381.000  3.512    3.422    33.988   
 381.200  3.475    3.358    33.733   
 381.400  3.419    3.260    33.234   
 381.600  3.403    3.258    33.541   
 381.800  3.323    3.248    33.483   
 382.000  3.355    3.224    33.733   
 382.200  3.355    3.156    33.982   
 382.400  3.387    3.190    34.125   
 382.600  3.452    3.122    34.520   
 382.800  3.419    3.122    34.606   
 383.000  3.419    3.156    34.606   
 383.200  3.435    3.156    33.982   
 383.400  3.503    3.224    34.232   
