~VERSION INFORMATION
 VERS.                          2.0 :CWLS LOG ASCII STANDARD [logix (c) Softland]
 WRAP.                          NO  : ONE LINE PER DEPTH STEP
~WELL INFORMATION
#MNEM.UNIT           DATA                         :DESCRIPTION
#----.----           ----------                      ----------------
 STRT.M    4.000                                   :START DEPTH
 STOP.M  656.000                                   :STOP  DEPTH
 STEP.M 0.200                                      :STEP
 NULL.  -99999.000                                 :NULL VALUE
 ALT.M    0.000                                    :KB or GL
 COMP.  Нефтяная компания                          :OIL COMPANY
 WELL.  65                                         :WELL
 FLD .  прямое                                     :FIELD
 LOC .                                             :LOCATION
 CTRY.                                             :COUNTRY
 SRVC.                                             :SERVICE COMPANY
 DATE.                                             :DATE
 API .                                             :API NUMBER
 UWI .                                             :UNIVERSAL WELL INDEX
~Curve Information Section
#MNEM.UNIT           API CODE                       Curve Description
#----.----           ----------                      ----------------
 DEPT.M                       :
 PZ.OHMM                            :
 GZ3.OHMM                            :
 PS.MV                            :
~A DEPT PZ.OHMM GZ3.OHMM PS.MV
 4.000    -99999.000 -99999.000 -99999.000 
 4.200    -99999.000 -99999.000 -99999.000 
 4.400    -99999.000 -99999.000 43.179   
 4.600    -99999.000 -99999.000 35.428   
 4.800    -99999.000 -99999.000 30.302   
 5.000    -99999.000 -99999.000 28.779   
 5.200    -99999.000 -99999.000 29.482   
 5.400    3.546    -99999.000 30.185   
 5.600    4.531    -99999.000 30.319   
 5.800    5.515    -99999.000 30.048   
 6.000    6.020    -99999.000 30.327   
 6.200    7.106    -99999.000 30.614   
 6.400    8.156    -99999.000 29.735   
 6.600    9.065    -99999.000 28.743   
 6.800    10.161   -99999.000 28.042   
 7.000    10.331   14.491   28.437   
 7.200    10.452   14.814   29.207   
 7.400    10.358   15.290   29.865   
 7.600    10.018   15.698   29.741   
 7.800    9.678    15.572   29.741   
 8.000    9.804    15.489   29.815   
 8.200    9.634    16.197   29.419   
 8.400    9.254    16.961   29.273   
 8.600    8.874    17.725   29.481   
 8.800    8.536    17.687   30.240   
 9.000    8.251    17.231   30.272   
 9.200    8.201    16.774   30.917   
 9.400    8.186    16.318   31.811   
 9.600    8.301    15.862   32.581   
 9.800    8.416    15.350   33.351   
 10.000   8.180    14.398   34.370   
 10.200   7.934    13.447   35.264   
 10.400   7.701    12.349   35.729   
 10.600   7.600    10.935   35.853   
 10.800   7.499    9.520    35.853   
 11.000   7.376    9.506    36.472   
 11.200   7.226    9.053    37.101   
 11.400   7.161    8.351    36.851   
 11.600   6.935    7.649    36.727   
 11.800   6.673    7.136    36.477   
 12.000   6.476    7.171    36.602   
 12.200   6.214    6.985    36.228   
 12.400   5.823    6.816    36.477   
 12.600   5.658    6.815    36.312   
 12.800   5.492    6.339    36.041   
 13.000   5.286    5.863    36.310   
 13.200   5.355    5.387    36.851   
 13.400   5.387    5.155    36.726   
 13.600   5.491    5.724    35.956   
 13.800   5.979    6.292    35.023   
 14.000   6.144    6.623    34.916   
 14.200   6.175    6.526    35.190   
 14.400   5.603    6.299    35.960   
 14.600   5.199    5.908    36.979   
 14.800   4.776    5.322    37.475   
 15.000   4.837    4.735    37.305   
 15.200   4.865    4.148    37.417   
 15.400   4.635    4.025    37.475   
 15.600   4.387    3.936    37.241   
 15.800   4.305    4.408    36.727   
 16.000   4.290    4.615    36.602   
 16.200   4.290    4.628    36.899   
 16.400   4.290    3.919    37.420   
 16.600   4.290    3.767    37.974   
 16.800   4.290    3.845    37.849   
 17.000   4.364    3.671    37.841   
 17.200   4.452    3.531    37.725   
 17.400   4.435    3.462    37.725   
 17.600   4.270    3.428    37.849   
 17.800   4.258    3.539    37.974   
 18.000   4.416    3.883    37.974   
 18.200   4.484    4.005    37.974   
 18.400   4.318    4.038    37.567   
 18.600   4.185    3.775    37.172   
 18.800   4.173    3.462    37.051   
 19.000   4.226    3.631    37.446   
 19.200   4.407    3.801    38.715   
 19.400   4.492    3.665    38.459   
 19.600   4.263    3.597    38.633   
 19.800   4.130    3.613    38.904   
 20.000   4.255    3.767    41.420   
 20.200   4.129    3.824    42.616   
 20.400   4.065    3.706    41.956   
 20.600   3.856    3.631    40.691   
 20.800   3.710    3.460    41.026   
 21.000   3.645    3.360    41.966   
 21.200   3.586    3.471    42.245   
 21.400   3.581    3.563    39.928   
 21.600   3.935    3.529    37.612   
 21.800   4.006    3.652    35.295   
 22.000   4.333    3.801    32.979   
 22.200   4.355    3.699    33.211   
 22.400   4.143    3.564    34.134   
 22.600   3.785    3.498    35.057   
 22.800   3.587    3.964    34.917   
 23.000   3.422    4.083    34.877   
 23.200   3.258    4.121    35.230   
 23.400   3.226    3.511    34.292   
 23.600   3.235    3.518    32.695   
 23.800   3.258    3.503    32.360   
 24.000   3.226    3.159    33.112   
 24.200   3.527    2.782    34.381   
 24.400   3.000    2.609    35.308   
 24.600   2.935    2.656    35.287   
 24.800   2.935    2.749    34.731   
 25.000   2.968    2.631    34.606   
 25.200   2.959    2.681    34.107   
 25.400   2.871    2.739    33.857   
 25.600   2.710    2.585    34.031   
 25.800   2.742    2.545    34.301   
 26.000   2.774    2.477    34.572   
 26.200   2.738    2.369    34.119   
 26.400   2.871    2.420    33.973   
 26.600   2.806    2.886    34.137   
 26.800   2.878    2.953    34.657   
 27.000   3.053    2.681    35.604   
 27.200   3.017    2.579    35.385   
 27.400   3.245    3.254    33.847   
 27.600   3.364    3.394    31.600   
 27.800   3.328    2.956    30.272   
 28.000   3.098    3.002    30.739   
 28.200   2.901    3.214    30.739   
 28.400   2.742    2.816    30.739   
 28.600   2.667    2.257    30.981   
 28.800   2.566    2.089    32.845   
 29.000   2.516    2.247    33.822   
 29.200   2.516    2.478    35.161   
 29.400   2.671    2.743    35.806   
 29.600   2.615    2.335    35.629   
 29.800   2.613    1.927    34.860   
 30.000   2.683    2.097    35.122   
 30.200   2.806    2.441    35.642   
 30.400   3.046    2.715    35.669   
 30.600   3.178    2.715    35.435   
 30.800   3.226    3.220    35.581   
 31.000   3.201    3.540    35.353   
 31.200   3.036    3.359    34.855   
 31.400   3.032    3.188    34.606   
 31.600   2.972    3.162    34.668   
 31.800   3.000    3.156    34.731   
 32.000   3.000    3.171    34.731   
 32.200   2.968    2.861    34.730   
 32.400   3.012    2.722    34.481   
 32.600   2.944    2.715    34.232   
 32.800   2.907    2.646    34.292   
 33.000   2.871    2.613    34.481   
 33.200   2.842    2.613    34.481   
 33.400   2.871    2.579    34.356   
 33.600   2.871    2.630    34.606   
 33.800   2.968    2.681    35.183   
 34.000   2.987    2.681    34.731   
 34.200   3.023    2.676    34.944   
 34.400   3.124    2.714    35.464   
 34.600   3.227    2.819    35.105   
 34.800   3.194    2.844    34.952   
 35.000   3.258    2.997    34.606   
 35.200   3.301    3.137    35.300   
 35.400   3.240    3.224    36.069   
 35.600   3.405    2.964    36.714   
 35.800   3.419    2.851    37.110   
 36.000   3.452    3.051    36.757   
 36.200   3.548    3.054    36.727   
 36.400   3.516    3.025    36.799   
 36.600   3.516    3.232    37.320   
 36.800   3.493    3.338    36.986   
 37.000   3.581    3.310    35.853   
 37.200   3.434    3.326    35.637   
 37.400   3.505    3.316    36.851   
 37.600   3.606    3.354    37.176   
 37.800   3.648    3.394    37.572   
 38.000   3.644    3.428    37.475   
 38.200   3.576    3.394    36.741   
 38.400   3.443    3.403    37.760   
 38.600   3.452    3.462    38.530   
 38.800   3.484    3.513    38.270   
 39.000   3.452    3.495    36.727   
 39.200   3.395    3.521    36.232   
 39.400   3.512    3.364    35.462   
 39.600   3.580    3.427    35.354   
 39.800   3.577    3.495    34.980   
 40.000   3.541    3.537    34.936   
 40.200   3.548    3.586    34.481   
 40.400   3.548    3.480    34.606   
 40.600   3.497    3.462    34.835   
 40.800   3.387    3.404    35.230   
 41.000   3.424    3.360    35.354   
 41.200   3.547    3.394    35.354   
 41.400   3.548    3.462    35.230   
 41.600   3.574    3.428    35.104   
 41.800   3.409    3.385    35.230   
 42.000   3.211    3.258    35.024   
 42.200   3.129    3.241    35.105   
 42.400   3.087    3.381    34.980   
 42.600   3.038    3.428    35.122   
 42.800   3.097    3.365    35.105   
 43.000   3.129    3.225    35.130   
 43.200   3.059    2.952    35.105   
 43.400   3.106    2.817    35.105   
 43.600   3.226    2.997    35.105   
 43.800   3.147    3.341    35.119   
 44.000   3.097    3.665    35.230   
 44.200   3.161    3.676    35.230   
 44.400   3.097    3.597    34.855   
 44.600   3.097    3.628    34.910   
 44.800   3.129    3.529    35.013   
 45.000   3.105    3.428    35.592   
 45.200   3.161    3.428    35.729   
 45.400   3.177    3.495    35.604   
 45.600   3.085    3.682    35.604   
 45.800   2.968    3.713    35.531   
