~VERSION INFORMATION
 VERS.                          2.0 :CWLS LOG ASCII STANDARD [logix (c) Softland]
 WRAP.                          NO  : ONE LINE PER DEPTH STEP
~WELL INFORMATION
#MNEM.UNIT           DATA                         :DESCRIPTION
#----.----           ----------                      ----------------
 STRT.M    4.000                                   :START DEPTH
 STOP.M  656.000                                   :STOP  DEPTH
 STEP.M 0.200                                      :STEP
 NULL.  -99999.000                                 :NULL VALUE
 ALT.M    0.000                                    :KB or GL
 COMP.  Нефтяная компания                          :OIL COMPANY
 WELL.  65                                         :WELL
 FLD .  прямое                                     :FIELD
 LOC .                                             :LOCATION
 CTRY.                                             :COUNTRY
 SRVC.                                             :SERVICE COMPANY
 DATE.                                             :DATE
 API .                                             :API NUMBER
 UWI .                                             :UNIVERSAL WELL INDEX
~Curve Information Section
#MNEM.UNIT           API CODE                       Curve Description
#----.----           ----------                      ----------------
 DEPT.M                       :
 PZ.OHMM                            :
 GZ3.OHMM                            :
 PS.MV                            :
~A DEPT PZ.OHMM GZ3.OHMM PS.MV
# ...
 172.600  3.613    3.292    37.725   
 172.800  3.554    3.239    37.937   
 173.000  3.518    3.247    38.333   
 173.200  3.452    3.285    39.091   
 173.400  3.543    3.326    39.373   
 173.600  3.484    3.463    39.548   
 173.800  3.548    3.563    38.778   
 174.000  3.581    3.486    38.473   
 174.200  3.527    3.394    38.112   
 174.400  3.541    3.428    38.348   
 174.600  3.581    3.482    38.069   
 174.800  3.613    3.495    37.549   
 175.000  3.677    3.490    37.226   
 175.200  3.604    3.394    37.319   
 175.400  3.581    3.360    37.465   
 175.600  3.548    3.366    37.860   
 175.800  3.613    3.417    38.256   
 176.000  3.637    3.326    38.651   
 176.200  3.649    3.258    38.398   
 176.400  3.677    3.235    38.224   
 176.600  3.714    3.224    38.224   
 176.800  3.911    3.322    37.849   
 177.000  4.129    3.462    37.690   
 177.200  4.129    3.563    37.600   
 177.400  4.013    3.631    37.802   
 177.600  3.783    3.542    38.322   
 177.800  3.581    3.444    38.353   
 178.000  3.676    3.373    37.725   
 178.200  3.707    3.326    36.851   
 178.400  3.606    3.388    37.042   
 178.600  3.505    3.394    37.056   
 178.800  3.372    3.462    37.327   
 179.000  3.355    3.428    38.099   
 179.200  3.290    3.384    38.847   
 179.400  3.355    3.292    38.348   
 179.600  3.450    3.326    38.037   
 179.800  3.484    3.270    37.849   
 180.000  3.516    3.232    37.725   
 180.200  3.558    3.224    37.600   
 180.400  3.627    3.190    37.475   
 180.600  3.710    3.228    37.643   
 180.800  3.774    3.326    37.725   
 181.000  3.806    3.394    37.849   
 181.200  3.903    3.394    38.117   
 181.400  3.806    3.374    37.974   
 181.600  3.834    3.360    37.974   
 181.800  3.783    3.319    37.974   
 182.000  3.839    3.224    37.974   
 182.200  3.903    3.224    37.974   
 182.400  3.903    3.258    37.849   
 182.600  3.879    3.360    37.725   
 182.800  3.871    3.441    37.600   
 183.000  3.774    3.445    37.475   
 183.200  3.738    3.440    37.475   
 183.400  3.669    3.360    37.475   
 183.600  3.560    3.360    37.475   
 183.800  3.548    3.428    37.600   
 184.000  3.581    3.462    37.725   
 184.200  3.581    3.421    38.099   
 184.400  3.553    3.292    37.974   
 184.600  3.548    3.209    37.880   
 184.800  3.551    3.224    37.725   
 185.000  3.645    3.315    37.600   
 185.200  3.656    3.394    37.475   
 185.400  3.724    3.394    37.350   
 185.600  3.742    3.257    37.350   
 185.800  3.765    3.156    37.350   
 186.000  3.806    3.301    37.475   
 186.200  3.742    3.428    37.600   
 186.400  3.677    3.360    37.760   
 186.600  3.639    3.203    37.793   
 186.800  3.516    3.215    37.397   
 187.000  3.530    3.354    37.127   
 187.200  3.566    3.394    36.856   
 187.400  3.602    3.430    36.602   
 187.600  3.735    3.759    36.477   
 187.800  3.806    3.857    36.352   
 188.000  3.806    3.504    36.352   
 188.200  3.737    3.326    36.352   
 188.400  3.701    3.326    36.228   
 188.600  3.658    3.326    36.228   
 188.800  3.710    3.322    36.228   
 189.000  3.677    3.326    36.228   
 189.200  3.645    3.360    36.311   
 189.400  3.581    3.360    36.228   
 189.600  3.581    3.360    36.228   
 189.800  3.581    3.360    36.330   
 190.000  3.573    3.360    35.978   
 190.200  3.560    3.360    35.913   
 190.400  3.548    3.326    35.978   
 190.600  3.548    3.358    35.978   
 190.800  3.645    3.360    35.978   
 191.000  3.613    3.394    36.103   
 191.200  3.581    3.394    36.149   
 191.400  3.516    3.407    36.228   
 191.600  3.523    3.445    36.352   
 191.800  3.548    3.462    36.243   
 192.000  3.581    3.495    36.097   
 192.200  3.613    3.500    35.853   
 192.400  3.613    3.529    35.853   
 192.600  3.651    3.529    35.729   
 192.800  3.615    3.529    35.853   
 193.000  3.613    3.495    35.978   
 193.200  3.613    3.495    36.112   
 193.400  3.623    3.495    36.228   
 193.600  3.677    3.462    36.228   
 193.800  3.710    3.495    35.905   
 194.000  3.677    3.493    35.729   
 194.200  3.677    3.428    35.479   
 194.400  3.680    3.428    35.491   
 194.600  3.484    3.437    35.637   
 194.800  3.452    3.407    35.783   
 195.000  3.493    3.411    35.978   
 195.200  3.548    3.373    36.075   
 195.400  3.581    3.335    35.985   
 195.600  3.548    3.360    35.714   
 195.800  3.588    3.326    35.604   
 196.000  3.552    3.326    35.354   
 196.200  3.484    3.292    34.980   
 196.400  3.419    3.258    35.105   
 196.600  3.419    3.258    35.225   
 196.800  3.528    3.258    35.496   
 197.000  3.693    3.280    35.892   
 197.200  3.935    3.284    35.978   
 197.400  3.992    3.224    36.022   
 197.600  3.908    3.224    35.853   
 197.800  3.678    3.224    35.481   
 198.000  3.545    3.156    35.335   
 198.200  3.348    3.156    35.189   
 198.400  3.279    3.206    35.105   
 198.600  3.258    3.204    34.980   
 198.800  3.277    3.190    34.960   
 199.000  3.355    3.218    34.980   
 199.200  3.317    3.192    35.002   
 199.400  3.387    3.190    35.105   
 199.600  3.452    3.190    35.105   
 199.800  3.419    3.156    35.191   
 200.000  3.430    3.170    35.122   
 200.200  3.470    3.174    35.479   
 200.400  3.419    3.212    35.729   
 200.600  3.355    3.190    35.604   
 200.800  3.355    3.156    35.604   
 201.000  3.355    3.156    35.604   
 201.200  3.289    3.122    35.729   
 201.400  3.253    3.164    35.729   
 201.600  3.226    3.122    35.853   
 201.800  3.226    3.122    35.902   
 202.000  3.275    3.176    36.048   
 202.200  3.376    3.122    36.103   
 202.400  3.394    3.122    35.978   
 202.600  3.355    3.156    35.853   
 202.800  3.355    3.122    35.884   
 203.000  3.359    3.122    36.155   
 203.200  3.395    3.079    36.155   
 203.400  3.375    3.041    35.759   
 203.600  3.258    3.020    35.604   
 203.800  3.258    3.020    35.354   
 204.000  3.194    2.986    35.387   
 204.200  3.101    2.952    35.425   
 204.400  3.065    2.952    35.354   
 204.600  3.133    2.952    35.479   
 204.800  3.233    2.952    35.236   
 205.000  3.323    2.952    35.244   
 205.200  3.290    2.986    35.194   
 205.400  3.290    3.005    35.105   
 205.600  3.387    3.020    35.354   
 205.800  3.419    3.054    35.579   
 206.000  3.387    3.054    35.725   
 206.200  3.323    3.020    35.711   
 206.400  3.316    2.986    35.565   
 206.600  3.248    2.986    35.354   
 206.800  3.194    2.999    35.230   
 207.000  3.194    2.986    35.230   
 207.200  3.216    3.109    35.353   
 207.400  3.252    3.181    35.459   
 207.600  3.290    3.252    35.354   
 207.800  3.258    3.292    35.479   
 208.000  3.290    3.292    35.729   
 208.200  3.355    3.230    35.624   
 208.400  3.309    3.214    35.727   
 208.600  3.273    3.156    35.627   
 208.800  3.258    3.122    35.479   
 209.000  3.258    3.066    35.230   
 209.200  3.287    3.054    35.105   
 209.400  3.323    3.122    35.105   
 209.600  3.286    3.190    35.109   
 209.800  3.267    3.190    35.354   
 210.000  3.323    3.156    35.479   
 210.200  3.403    3.190    35.796   
 210.400  3.440    3.106    35.942   
 210.600  3.508    3.088    35.978   
 210.800  3.576    3.054    35.978   
 211.000  3.516    3.082    35.978   
 211.200  3.387    3.052    35.978   
 211.400  3.387    3.053    35.978   
 211.600  3.323    3.088    35.886   
 211.800  3.323    3.122    35.853   
 212.000  3.323    3.170    35.729   
 212.200  3.346    3.208    35.607   
 212.400  3.387    3.245    35.643   
 212.600  3.452    3.249    35.679   
 212.800  3.516    3.258    35.714   
 213.000  3.548    3.122    35.844   
 213.200  3.548    3.153    36.103   
 213.400  3.452    3.088    36.012   
 213.600  3.419    3.156    36.103   
 213.800  3.397    3.205    36.352   
 214.000  3.387    3.292    36.477   
 214.200  3.452    3.360    36.477   
 214.400  3.452    3.387    36.477   
 214.600  3.452    3.428    36.477   
