~VERSION INFORMATION
 VERS.                          2.0 :CWLS LOG ASCII STANDARD [logix (c) Softland]
 WRAP.                          NO  : ONE LINE PER DEPTH STEP
~WELL INFORMATION
#MNEM.UNIT           DATA                         :DESCRIPTION
#----.----           ----------                      ----------------
 STRT.M    4.000                                   :START DEPTH
 STOP.M  656.000                                   :STOP  DEPTH
 STEP.M 0.200                                      :STEP
 NULL.  -99999.000                                 :NULL VALUE
 ALT.M    0.000                                    :KB or GL
 COMP.  Нефтяная компания                          :OIL COMPANY
 WELL.  65                                         :WELL
 FLD .  прямое                                     :FIELD
 LOC .                                             :LOCATION
 CTRY.                                             :COUNTRY
 SRVC.                                             :SERVICE COMPANY
 DATE.                                             :DATE
 API .                                             :API NUMBER
 UWI .                                             :UNIVERSAL WELL INDEX
~Curve Information Section
#MNEM.UNIT           API CODE                       Curve Description
#----.----           ----------                      ----------------
 DEPT.M                       :
 PZ.OHMM                            :
 GZ3.OHMM                            :
 PS.MV                            :
~A DEPT PZ.OHMM GZ3.OHMM PS.MV
# ...
 425.800  3.548    3.394    34.232   
 426.000  3.502    3.394    34.074   
 426.200  3.484    3.354    33.982   
 426.400  3.484    3.326    34.182   
 426.600  3.452    3.305    34.356   
 426.800  3.452    3.326    34.606   
 427.000  3.421    3.326    34.232   
 427.200  3.446    3.326    34.232   
 427.400  3.419    3.389    34.538   
 427.600  3.419    3.360    34.356   
 427.800  3.387    3.394    33.982   
 428.000  3.419    3.394    34.111   
 428.200  3.419    3.439    33.608   
 428.400  3.419    3.462    33.570   
 428.600  3.420    3.446    33.857   
 428.800  3.456    3.428    33.777   
 429.000  3.452    3.420    33.483   
 429.200  3.484    3.394    33.483   
 429.400  3.484    3.359    33.752   
 429.600  3.548    3.330    34.107   
 429.800  3.548    3.292    34.293   
 430.000  3.548    3.258    34.190   
 430.200  3.580    3.224    34.377   
 430.400  3.548    3.156    34.356   
 430.600  3.541    3.132    34.606   
 430.800  3.484    3.156    34.606   
 431.000  3.516    3.122    34.670   
 431.200  3.484    3.156    34.520   
 431.400  3.461    3.150    34.481   
 431.600  3.452    3.156    34.481   
 431.800  3.450    3.156    34.356   
 432.000  3.417    3.190    34.356   
 432.200  3.413    3.190    34.356   
 432.400  3.376    3.190    34.232   
 432.600  3.340    3.186    33.982   
 432.800  3.323    3.122    34.100   
 433.000  3.290    3.122    33.982   
 433.200  3.258    3.122    33.933   
 433.400  3.258    3.122    33.912   
 433.600  3.256    3.172    34.073   
 433.800  3.220    3.156    33.745   
 434.000  3.248    3.156    33.617   
 434.200  3.258    3.190    33.608   
 434.400  3.258    3.222    33.733   
 434.600  3.279    3.224    33.733   
 434.800  3.290    3.224    33.608   
 435.000  3.290    3.224    33.368   
 435.200  3.323    3.224    33.222   
 435.400  3.355    3.190    33.109   
 435.600  3.355    3.224    32.984   
 435.800  3.355    3.224    32.984   
 436.000  3.355    3.258    33.483   
 436.200  3.355    3.258    33.601   
 436.400  3.355    3.258    33.622   
 436.600  3.355    3.292    33.768   
 436.800  3.387    3.258    33.789   
 437.000  3.383    3.258    33.608   
 437.200  3.347    3.258    33.608   
 437.400  3.367    3.224    33.608   
 437.600  3.355    3.197    33.608   
 437.800  3.323    3.159    33.982   
 438.000  3.378    3.122    33.982   
 438.200  3.318    3.088    33.857   
 438.400  3.323    3.054    33.755   
 438.600  3.290    2.999    33.857   
 438.800  3.283    2.952    33.877   
 439.000  3.258    2.952    33.898   
 439.200  3.258    2.952    34.294   
 439.400  3.239    2.924    34.565   
 439.600  3.248    2.919    34.711   
 439.800  3.226    2.952    34.106   
 440.000  3.194    2.925    33.733   
 440.200  3.228    2.895    34.063   
 440.400  3.199    2.919    33.917   
 440.600  3.236    2.919    33.522   
 440.800  3.207    2.941    33.358   
 441.000  3.226    2.986    33.736   
 441.200  3.194    2.952    33.982   
 441.400  3.168    2.919    33.936   
 441.600  3.194    2.919    33.608   
 441.800  3.194    2.952    33.483   
 442.000  3.194    2.986    33.593   
 442.200  3.185    2.986    33.851   
 442.400  3.174    2.986    33.608   
 442.600  3.145    2.986    33.733   
 442.800  3.129    2.919    34.052   
 443.000  3.154    2.952    33.733   
 443.200  3.097    2.986    33.845   
 443.400  3.129    3.014    33.857   
 443.600  3.097    2.919    34.107   
 443.800  3.097    2.952    34.034   
 444.000  3.053    2.901    33.681   
 444.200  3.080    2.897    33.982   
 444.400  3.065    2.817    33.742   
 444.600  3.065    2.749    33.745   
 444.800  3.065    2.681    33.733   
 445.000  3.065    2.545    33.358   
 445.200  3.094    2.477    33.358   
 445.400  3.097    2.455    33.580   
 445.600  3.086    2.561    33.608   
 445.800  3.082    2.633    33.483   
 446.000  3.065    2.772    33.608   
 446.200  3.065    2.919    33.608   
 446.400  3.065    2.986    33.109   
 446.600  3.065    3.020    33.109   
 446.800  3.030    2.981    33.109   
 447.000  3.000    2.875    33.483   
 447.200  2.978    2.783    33.358   
 447.400  2.986    2.749    33.673   
 447.600  2.950    2.702    33.857   
 447.800  2.914    2.681    33.835   
 448.000  2.942    2.681    33.858   
 448.200  2.968    2.714    34.087   
 448.400  2.968    2.650    33.982   
 448.600  3.000    2.681    34.418   
 448.800  3.032    2.715    34.481   
 449.000  3.045    2.783    34.606   
 449.200  3.081    2.783    34.232   
 449.400  3.097    2.783    34.209   
 449.600  3.097    2.877    33.439   
 449.800  3.129    2.915    33.483   
 450.000  3.161    2.952    33.358   
 450.200  3.161    2.919    33.483   
 450.400  3.161    2.885    33.608   
 450.600  3.161    2.817    33.832   
 450.800  3.177    2.799    33.187   
 451.000  3.161    2.796    33.166   
 451.200  3.129    2.807    33.269   
 451.400  3.129    2.783    32.998   
 451.600  3.097    2.783    32.610   
 451.800  3.097    2.749    32.763   
 452.000  3.097    2.715    33.158   
 452.200  3.086    2.817    33.429   
 452.400  3.129    2.817    33.483   
 452.600  3.129    2.749    33.608   
 452.800  3.129    2.805    32.984   
 453.000  3.129    2.945    33.078   
 453.200  3.129    2.982    32.932   
 453.400  3.129    3.020    32.933   
 453.600  3.129    2.779    33.234   
 453.800  3.129    2.579    33.234   
 454.000  3.115    2.591    32.972   
 454.200  3.097    2.511    32.735   
 454.400  3.065    2.579    32.610   
 454.600  3.065    2.637    32.610   
 454.800  3.032    2.743    32.832   
 455.000  3.000    2.783    33.227   
 455.200  2.962    2.852    33.982   
 455.400  2.959    2.777    33.821   
 455.600  2.903    2.749    33.416   
 455.800  2.871    2.715    33.358   
 456.000  2.871    2.749    33.134   
 456.200  2.839    2.783    33.729   
 456.400  2.839    2.757    34.107   
 456.600  2.806    2.686    34.107   
 456.800  2.779    2.680    34.047   
 457.000  2.774    2.613    33.651   
 457.200  2.774    2.579    33.109   
 457.400  2.758    2.579    33.234   
 457.600  2.794    2.560    33.254   
 457.800  2.742    2.545    33.649   
 458.000  2.742    2.545    33.982   
 458.200  2.742    2.579    33.733   
 458.400  2.742    2.613    33.502   
 458.600  2.749    2.648    33.485   
 458.800  2.742    2.681    33.460   
 459.000  2.727    2.647    33.314   
 459.200  2.710    2.681    33.299   
 459.400  2.645    2.681    33.483   
 459.600  2.645    2.681    33.608   
 459.800  2.611    2.647    33.608   
 460.000  2.581    2.579    33.509   
 460.200  2.587    2.513    33.109   
 460.400  2.581    2.443    33.177   
 460.600  2.613    2.443    33.323   
 460.800  2.645    2.488    33.608   
 461.000  2.710    2.526    33.601   
 461.200  2.742    2.527    33.109   
 461.400  2.836    2.421    33.283   
 461.600  2.837    2.410    33.679   
 461.800  2.769    2.410    34.107   
 462.000  2.774    2.410    34.481   
 462.200  2.774    2.270    34.606   
 462.400  2.806    2.198    34.325   
 462.600  2.742    2.104    34.179   
 462.800  2.677    2.104    33.534   
 463.000  2.642    2.138    33.139   
 463.200  2.548    2.230    33.109   
 463.400  2.645    2.403    33.371   
 463.600  2.645    2.511    33.642   
 463.800  2.742    2.579    33.982   
 464.000  2.806    2.573    33.857   
 464.200  2.871    2.521    33.136   
 464.400  2.895    2.491    32.990   
 464.600  2.903    2.426    32.999   
 464.800  2.871    2.465    33.234   
 465.000  2.839    2.511    33.666   
 465.200  2.806    2.541    33.812   
 465.400  2.795    2.613    33.982   
 465.600  2.789    2.718    34.107   
 465.800  2.761    2.688    34.000   
 466.000  2.806    2.715    33.857   
 466.200  2.866    2.681    33.857   
 466.400  2.840    2.666    33.690   
 466.600  2.836    2.624    34.085   
 466.800  2.832    2.674    34.107   
 467.000  2.774    2.681    33.857   
 467.200  2.774    2.715    33.982   
 467.400  2.742    2.676    33.982   
 467.600  2.742    2.647    34.107   
 467.800  2.710    2.647    34.107   
