~VERSION INFORMATION
 VERS.                          2.0 :CWLS LOG ASCII STANDARD [logix (c) Softland]
 WRAP.                          NO  : ONE LINE PER DEPTH STEP
~WELL INFORMATION
#MNEM.UNIT           DATA                         :DESCRIPTION
#----.----           ----------                      ----------------
 STRT.M    4.000                                   :START DEPTH
 STOP.M  656.000                                   :STOP  DEPTH
 STEP.M 0.200                                      :STEP
 NULL.  -99999.000                                 :NULL VALUE
 ALT.M    0.000                                    :KB or GL
 COMP.  Нефтяная компания                          :OIL COMPANY
 WELL.  65                                         :WELL
 FLD .  прямое                                     :FIELD
 LOC .                                             :LOCATION
 CTRY.                                             :COUNTRY
 SRVC.                                             :SERVICE COMPANY
 DATE.                                             :DATE
 API .                                             :API NUMBER
 UWI .                                             :UNIVERSAL WELL INDEX
~Curve Information Section
#MNEM.UNIT           API CODE                       Curve Description
#----.----           ----------                      ----------------
 DEPT.M                       :
 PZ.OHMM                            :
 GZ3.OHMM                            :
 PS.MV                            :
~A DEPT PZ.OHMM GZ3.OHMM PS.MV
# ...
 552.400  3.263    3.280    37.475   
 552.600  3.323    3.258    37.600   
 552.800  3.387    3.262    37.751   
 553.000  3.323    3.190    37.522   
 553.200  3.323    3.262    37.918   
 553.400  3.355    3.394    37.884   
 553.600  3.262    3.348    37.613   
 553.800  3.194    3.174    37.982   
 554.000  3.294    3.122    38.252   
 554.200  3.419    3.098    38.972   
 554.400  3.419    3.088    38.651   
 554.600  3.564    2.887    37.725   
 554.800  3.761    2.749    36.488   
 555.000  3.839    2.715    36.228   
 555.200  3.516    2.749    36.134   
 555.400  3.452    2.715    36.530   
 555.600  3.452    2.647    36.777   
 555.800  3.426    2.703    36.448   
 556.000  3.559    2.749    36.469   
 556.200  3.724    3.020    37.725   
 556.400  3.806    3.122    38.008   
 556.600  3.774    3.292    37.725   
 556.800  3.833    3.333    38.051   
 557.000  3.966    3.428    38.348   
 557.200  3.966    3.375    38.099   
 557.400  3.903    3.379    37.709   
 557.600  3.977    3.485    37.350   
 557.800  4.046    3.462    37.658   
 558.000  3.983    3.425    38.303   
 558.200  3.656    3.358    38.972   
 558.400  3.516    3.195    39.100   
 558.600  3.516    3.079    38.866   
 558.800  3.485    2.966    39.511   
 559.000  3.714    2.986    39.906   
 559.200  3.847    3.143    39.927   
 559.400  3.968    3.283    40.116   
 559.600  3.710    3.394    40.843   
 559.800  3.560    3.528    41.738   
 560.000  3.702    3.597    42.091   
 560.200  3.742    3.604    42.216   
 560.400  3.742    3.281    42.131   
 560.600  3.706    3.035    41.111   
 560.800  3.508    3.002    38.476   
 561.000  3.408    3.247    38.449   
 561.200  3.484    3.333    37.804   
 561.400  3.632    3.458    38.040   
 561.600  3.677    3.563    38.436   
 561.800  3.677    3.670    39.097   
 562.000  3.677    3.733    38.717   
 562.200  3.806    3.585    38.598   
 562.400  3.871    3.614    38.770   
 562.600  3.914    3.686    38.030   
 562.800  3.935    4.572    37.191   
 563.000  4.419    6.386    37.711   
 563.200  4.645    7.396    38.356   
 563.400  3.716    6.450    39.097   
 563.600  3.131    5.667    38.797   
 563.800  3.032    3.859    38.099   
 564.000  3.135    3.787    37.881   
 564.200  3.216    3.477    38.462   
 564.400  3.065    3.462    39.211   
 564.600  3.032    3.488    38.972   
 564.800  2.968    3.491    38.847   
 565.000  2.942    3.563    38.773   
 565.200  3.029    3.390    37.629   
 565.400  3.031    3.148    37.592   
 565.600  3.005    2.941    38.362   
 565.800  3.105    2.767    39.561   
 566.000  3.213    2.661    39.415   
 566.200  3.097    2.942    39.222   
 566.400  3.000    3.082    38.624   
 566.600  2.943    3.190    37.730   
 566.800  3.061    3.019    37.849   
 567.000  3.323    2.845    37.563   
 567.200  3.452    2.749    37.042   
 567.400  3.516    2.735    38.054   
 567.600  3.560    2.681    38.622   
 567.800  3.661    2.681    39.593   
 568.000  3.626    2.715    41.112   
 568.200  3.613    2.749    40.928   
 568.400  3.613    2.784    39.033   
 568.600  3.612    2.783    38.723   
 568.800  3.713    2.858    38.099   
 569.000  3.878    2.930    38.224   
 569.200  3.935    3.020    39.368   
 569.400  3.889    2.952    39.596   
 569.600  3.742    3.009    38.783   
 569.800  3.710    3.088    38.138   
 570.000  3.801    3.122    37.743   
 570.200  3.837    3.088    38.102   
 570.400  3.841    3.059    38.199   
 570.600  3.974    3.190    37.679   
 570.800  4.000    3.258    36.785   
 571.000  4.000    3.292    37.350   
 571.200  4.050    3.203    37.584   
 571.400  4.065    3.292    37.849   
 571.600  3.975    3.422    37.323   
 571.800  3.842    3.529    36.304   
 572.000  3.676    3.736    36.047   
 572.200  3.581    3.760    36.352   
 572.400  3.484    3.529    36.727   
 572.600  3.464    3.578    36.851   
 572.800  3.419    3.650    36.448   
 573.000  3.484    3.767    35.853   
 573.200  3.452    3.793    34.731   
 573.400  3.419    3.839    34.824   
 573.600  3.452    3.631    35.354   
 573.800  3.484    3.398    35.604   
 574.000  3.492    3.436    35.636   
 574.200  3.592    3.517    35.925   
 574.400  3.742    3.394    36.228   
 574.600  3.891    3.326    36.256   
 574.800  4.120    3.132    36.220   
 575.000  4.355    2.925    36.865   
 575.200  4.323    3.018    37.635   
 575.400  4.487    3.226    38.030   
 575.600  4.516    3.218    38.146   
 575.800  4.656    3.471    37.475   
 576.000  4.918    3.563    38.219   
 576.200  4.949    3.631    37.849   
 576.400  4.623    3.631    38.261   
 576.600  4.736    3.691    38.532   
 576.800  4.871    3.966    37.021   
 577.000  4.546    4.005    36.578   
 577.200  3.935    5.025    36.974   
 577.400  3.474    5.527    37.600   
 577.600  3.309    4.988    37.560   
 577.800  3.469    4.449    37.289   
 578.000  3.602    3.909    36.809   
 578.200  3.555    3.858    36.872   
 578.400  3.487    3.604    36.727   
 578.600  3.452    3.462    37.372   
 578.800  3.323    3.599    37.974   
 579.000  3.258    3.563    38.284   
 579.200  3.213    3.351    37.889   
 579.400  3.209    3.177    37.849   
 579.600  3.182    3.343    37.849   
 579.800  3.444    3.394    37.451   
 580.000  3.455    3.360    36.930   
 580.200  3.097    3.394    36.851   
 580.400  2.972    3.428    37.314   
 580.600  2.992    3.394    37.740   
 580.800  2.839    3.400    37.226   
 581.000  2.806    3.428    37.226   
 581.200  2.891    3.379    38.050   
 581.400  3.056    3.292    39.042   
 581.600  3.101    3.247    39.006   
 581.800  3.129    3.386    37.113   
 582.000  3.129    3.462    35.978   
 582.200  3.097    3.462    36.228   
 582.400  3.032    3.462    36.052   
 582.600  3.047    3.495    35.531   
 582.800  3.032    3.576    35.074   
 583.000  3.009    3.699    34.232   
 583.200  2.839    3.495    34.368   
 583.400  2.966    3.098    34.698   
 583.600  3.131    2.986    34.606   
 583.800  3.264    3.053    34.281   
 584.000  3.355    3.052    34.135   
 584.200  3.355    2.912    34.349   
 584.400  3.387    2.895    35.091   
 584.600  3.441    2.919    34.820   
 584.800  3.542    2.867    34.549   
 585.000  3.486    2.761    34.653   
 585.200  3.516    2.655    34.954   
 585.400  3.511    2.583    35.599   
 585.600  3.493    2.749    36.602   
 585.800  3.516    2.779    36.439   
 586.000  3.501    2.791    36.037   
 586.200  3.527    3.178    35.523   
 586.400  3.484    3.511    35.830   
 586.600  3.484    3.578    36.600   
 586.800  3.387    3.200    37.081   
 587.000  3.387    3.027    36.727   
 587.200  3.355    3.120    36.414   
 587.400  3.323    3.802    36.727   
 587.600  3.371    4.751    36.497   
 587.800  3.367    4.436    35.977   
 588.000  3.170    3.855    35.604   
 588.200  2.935    3.342    35.398   
 588.400  2.774    2.952    36.043   
 588.600  3.290    2.876    36.727   
 588.800  3.194    2.952    36.584   
 589.000  3.258    2.952    36.349   
 589.200  3.243    3.088    36.577   
 589.400  3.245    3.047    37.396   
 589.600  3.442    2.907    40.412   
 589.800  3.489    2.836    50.768   
 590.000  3.579    2.866    58.512   
 590.200  3.288    3.077    64.642   
 590.400  3.445    3.428    70.772   
 590.600  3.881    3.360    76.902   
 590.800  3.696    3.530    83.033   
 591.000  3.175    3.832    83.882   
 591.200  2.720    4.287    83.882   
 591.400  2.587    4.741    85.351   
 591.600  2.516    5.057    86.751   
 591.800  2.547    4.628    86.751   
 592.000  2.484    4.199    86.751   
 592.200  2.558    3.770    86.751   
 592.400  2.535    3.341    83.227   
 592.600  2.516    2.912    83.327   
 592.800  2.516    2.573    73.407   
 593.000  2.702    2.624    63.995   
 593.200  2.835    2.749    55.963   
 593.400  2.742    2.764    47.932   
 593.600  2.843    2.398    39.900   
 593.800  2.976    2.402    37.226   
 594.000  3.052    2.541    37.226   
 594.200  2.919    2.851    36.984   
 594.400  2.819    2.923    36.842   
