~VERSION INFORMATION
 VERS.                          2.0 :CWLS LOG ASCII STANDARD [logix (c) Softland]
 WRAP.                          NO  : ONE LINE PER DEPTH STEP
~WELL INFORMATION
#MNEM.UNIT           DATA                         :DESCRIPTION
#----.----           ----------                      ----------------
 STRT.M    4.000                                   :START DEPTH
 STOP.M  656.000                                   :STOP  DEPTH
 STEP.M 0.200                                      :STEP
 NULL.  -99999.000                                 :NULL VALUE
 ALT.M    0.000                                    :KB or GL
 COMP.  Нефтяная компания                          :OIL COMPANY
 WELL.  65                                         :WELL
 FLD .  прямое                                     :FIELD
 LOC .                                             :LOCATION
 CTRY.                                             :COUNTRY
 SRVC.                                             :SERVICE COMPANY
 DATE.                                             :DATE
 API .                                             :API NUMBER
 UWI .                                             :UNIVERSAL WELL INDEX
~Curve Information Section
#MNEM.UNIT           API CODE                       Curve Description
#----.----           ----------                      ----------------
 DEPT.M                       :
 PZ.OHMM                            :
 GZ3.OHMM                            :
 PS.MV                            :
~A DEPT PZ.OHMM GZ3.OHMM PS.MV
# ...
 88.200   2.839    1.619    36.851   
 88.400   2.871    1.968    36.958   
 88.600   2.894    2.460    36.727   
 88.800   2.935    2.499    36.578   
 89.000   2.968    2.282    36.228   
 89.200   2.935    2.040    36.294   
 89.400   2.935    1.833    36.477   
 89.600   2.925    2.040    36.727   
 89.800   2.903    2.383    36.602   
 90.000   2.871    2.523    36.602   
 90.200   2.806    2.561    36.602   
 90.400   2.806    2.545    36.796   
 90.600   2.806    2.647    36.636   
 90.800   2.776    2.545    36.963   
 91.000   2.839    2.780    37.350   
 91.200   2.764    2.917    37.255   
 91.400   2.677    2.720    37.175   
 91.600   2.645    2.962    36.904   
 91.800   2.624    3.007    36.477   
 92.000   2.587    2.461    36.342   
 92.200   2.487    1.947    36.228   
 92.400   2.419    1.638    36.352   
 92.600   2.387    1.692    36.352   
 92.800   2.378    1.866    36.352   
 93.000   2.452    2.138    36.352   
 93.200   2.516    2.274    36.110   
 93.400   2.472    2.263    36.228   
 93.600   2.581    2.289    36.262   
 93.800   2.617    2.394    36.533   
 94.000   2.516    2.568    36.727   
 94.200   2.520    2.586    36.628   
 94.400   2.621    2.548    36.357   
 94.600   2.742    2.444    36.710   
 94.800   2.806    2.482    36.477   
 95.000   2.774    2.613    36.602   
 95.200   2.742    2.567    36.727   
 95.400   2.839    2.562    36.727   
 95.600   2.806    2.769    36.724   
 95.800   2.839    2.715    36.583   
 96.000   2.813    2.845    36.477   
 96.200   2.903    3.053    36.602   
 96.400   2.774    2.955    36.727   
 96.600   2.742    2.607    36.830   
 96.800   2.806    2.501    36.727   
 97.000   2.806    2.376    36.851   
 97.200   2.806    2.222    36.769   
 97.400   2.903    2.218    37.290   
 97.600   2.865    2.274    37.725   
 97.800   2.839    2.338    38.205   
 98.000   2.806    2.376    38.601   
 98.200   2.839    2.414    38.872   
 98.400   2.753    2.443    38.972   
 98.600   2.652    2.443    38.914   
 98.800   2.616    2.360    38.723   
 99.000   2.612    2.376    38.239   
 99.200   2.586    2.376    38.224   
 99.400   2.604    2.376    38.375   
 99.600   2.613    2.407    38.397   
 99.800   2.661    2.445    38.653   
 100.000  2.839    2.511    38.564   
 100.200  2.935    2.511    38.361   
 100.400  2.903    2.477    37.974   
 100.600  2.839    2.545    37.820   
 100.800  2.903    2.545    37.849   
 101.000  2.903    2.639    37.777   
 101.200  2.947    2.681    37.725   
 101.400  2.984    2.716    37.610   
 101.600  3.020    2.579    36.965   
 101.800  3.088    2.545    37.475   
 102.000  3.129    2.624    37.475   
 102.200  3.161    2.764    37.799   
 102.400  3.129    2.851    37.945   
 102.600  3.136    2.783    37.725   
 102.800  3.150    2.647    37.475   
 103.000  3.129    2.644    37.226   
 103.200  3.194    2.715    37.157   
 103.400  3.106    2.676    37.303   
 103.600  3.091    2.545    37.699   
 103.800  3.161    2.477    38.094   
 104.000  3.194    2.477    38.473   
 104.200  3.226    2.457    38.224   
 104.400  3.161    2.502    37.915   
 104.600  3.194    2.579    37.600   
 104.800  3.111    2.612    37.475   
 105.000  3.000    2.610    37.475   
 105.200  3.032    2.607    37.744   
 105.400  3.003    2.501    37.849   
 105.600  2.903    2.443    38.099   
 105.800  2.968    2.462    38.141   
 106.000  2.977    2.432    37.870   
 106.200  3.000    2.436    37.599   
 106.400  3.032    2.477    37.350   
 106.600  3.044    2.511    37.182   
 106.800  2.993    2.443    37.290   
 107.000  3.004    2.410    37.436   
 107.200  2.903    2.376    37.832   
 107.400  2.940    2.342    38.099   
 107.600  3.000    2.376    37.999   
 107.800  2.948    2.284    38.473   
 108.000  3.065    2.274    38.540   
 108.200  3.065    2.340    38.811   
 108.400  3.008    2.479    39.097   
 108.600  2.935    2.579    39.222   
 108.800  2.968    2.545    38.820   
 109.000  3.032    2.599    38.348   
 109.200  3.000    2.733    38.348   
 109.400  3.076    2.906    38.723   
 109.600  3.032    3.020    40.956   
 109.800  3.019    2.986    42.091   
 110.000  3.152    2.782    40.968   
 110.200  3.220    2.715    39.545   
 110.400  3.097    2.775    38.276   
 110.600  3.000    2.669    38.099   
 110.800  2.935    2.428    38.089   
 111.000  2.946    2.186    38.462   
 111.200  3.046    2.047    38.631   
 111.400  3.129    1.968    38.847   
 111.600  3.172    1.968    38.673   
 111.800  3.226    2.105    38.473   
 112.000  3.256    2.245    38.473   
 112.200  3.226    2.419    38.979   
 112.400  3.258    2.558    39.177   
 112.600  3.161    2.613    39.375   
 112.800  3.194    2.626    39.572   
 113.000  3.194    2.613    39.721   
 113.200  3.205    2.613    39.596   
 113.400  3.129    2.647    38.972   
 113.600  3.068    2.681    39.097   
 113.800  3.194    2.783    39.156   
 114.000  3.387    2.828    39.552   
 114.200  3.379    2.866    40.072   
 114.400  3.387    2.919    40.343   
 114.600  3.355    2.930    40.613   
 114.800  3.355    2.986    41.009   
 115.000  3.363    3.017    41.404   
 115.200  3.323    3.020    41.800   
 115.400  3.355    3.054    42.445   
 115.600  3.548    3.020    41.717   
 115.800  3.878    3.054    41.489   
 116.000  4.173    2.986    41.261   
 116.200  4.243    2.986    41.218   
 116.400  4.045    2.986    41.381   
 116.600  3.429    2.986    41.966   
 116.800  3.194    3.020    41.841   
 117.000  3.226    3.088    41.866   
 117.200  3.161    3.094    41.966   
 117.400  3.135    3.122    41.535   
 117.600  3.129    3.122    42.091   
 117.800  3.161    3.070    42.575   
 118.000  3.147    3.054    42.833   
 118.200  3.226    3.028    41.814   
 118.400  3.252    3.020    40.919   
 118.600  3.164    3.020    40.648   
 118.800  3.034    3.054    40.344   
 119.000  2.968    3.088    40.095   
 119.200  3.042    3.054    39.836   
 119.400  3.097    3.054    39.377   
 119.600  3.114    2.952    39.045   
 119.800  3.194    2.986    38.847   
 120.000  3.194    2.919    38.817   
 120.200  3.194    2.986    39.097   
 120.400  3.129    3.020    39.483   
 120.600  3.161    3.026    39.596   
 120.800  3.258    3.030    39.471   
 121.000  3.258    3.088    39.921   
 121.200  3.323    3.003    40.940   
 121.400  3.343    3.020    41.710   
 121.600  3.331    2.986    41.952   
 121.800  3.226    3.016    41.503   
 122.000  3.290    3.020    41.592   
 122.200  3.258    3.054    42.044   
 122.400  3.226    3.020    42.565   
 122.600  3.226    2.952    42.095   
 122.800  3.226    2.968    40.452   
 123.000  3.194    2.986    39.433   
 123.200  3.194    3.054    38.408   
 123.400  3.258    3.047    38.429   
 123.600  3.257    2.955    39.199   
 123.800  3.164    2.919    39.721   
 124.000  3.258    2.851    39.451   
 124.200  3.323    2.885    38.681   
 124.400  3.337    2.952    38.161   
 124.600  3.387    3.020    38.348   
 124.800  3.387    3.075    38.952   
 125.000  3.323    3.147    39.222   
 125.200  3.226    3.156    39.222   
 125.400  3.226    3.224    38.928   
 125.600  3.296    3.224    39.536   
 125.800  3.323    3.190    39.970   
 126.000  3.290    3.190    39.488   
 126.200  3.258    3.258    38.718   
 126.400  3.290    3.310    38.224   
 126.600  3.258    3.416    37.803   
 126.800  3.197    3.428    37.283   
 127.000  3.096    3.428    36.638   
 127.200  3.161    3.393    36.352   
 127.400  3.097    3.296    36.359   
 127.600  3.194    3.258    37.004   
 127.800  3.226    3.224    37.600   
 128.000  3.161    3.224    37.600   
 128.200  3.161    3.244    37.600   
 128.400  3.133    3.234    38.461   
 128.600  3.193    3.224    39.106   
 128.800  3.158    3.124    39.596   
 129.000  3.129    3.154    39.294   
 129.200  2.968    3.048    38.723   
 129.400  2.888    2.943    39.191   
 129.600  2.987    2.851    39.605   
 129.800  3.032    2.936    40.855   
 130.000  3.065    3.042    41.750   
 130.200  3.128    3.216    42.644   
