~VERSION INFORMATION
 VERS.                          2.0 :CWLS LOG ASCII STANDARD [logix (c) Softland]
 WRAP.                          NO  : ONE LINE PER DEPTH STEP
~WELL INFORMATION
#MNEM.UNIT           DATA                         :DESCRIPTION
#----.----           ----------                      ----------------
 STRT.M  246.000                                  :START DEPTH
 STOP.M  870.000                                  :STOP  DEPTH
 STEP.M 0.200                                     :STEP
 NULL.  -99999.000                                :NULL VALUE
 ALT.M    0.000                                    :KB or GL
 COMP.  Нефтяная компания                          :OIL COMPANY
 WELL.  17                                         :WELL
 FLD .  первое                                     :FIELD
 LOC .                                             :LOCATION
 CTRY.                                             :COUNTRY
 SRVC.                                             :SERVICE COMPANY
 DATE.  15-02-1971                                 :DATE
 API .                                             :API NUMBER
 UWI .                                             :UNIVERSAL WELL INDEX
~Curve Information Section
#MNEM.UNIT           API CODE                       Curve Description
#----.----           ----------                      ----------------
 DEPT.M                       :
 PZ.OHMM                      :
 GZ6.OHMM                     :
 PS.MV                        :
~A DEPT PZ GZ6.OHMM PS
# ...
 769.200  3.366    -99999.000 27.177   
 769.400  3.611    -99999.000 27.838   
 769.600  3.856    -99999.000 28.499   
 769.800  4.101    -99999.000 29.161   
 770.000  4.346    -99999.000 29.737   
 770.200  4.535    -99999.000 29.619   
 770.400  4.519    -99999.000 29.502   
 770.600  4.504    -99999.000 29.385   
 770.800  4.488    -99999.000 29.267   
 771.000  4.473    -99999.000 29.150   
 771.200  4.457    -99999.000 29.033   
 771.400  4.441    -99999.000 28.915   
 771.600  4.426    -99999.000 28.798   
 771.800  4.410    -99999.000 28.681   
 772.000  4.395    -99999.000 28.564   
 772.200  4.379    -99999.000 28.446   
 772.400  4.364    -99999.000 28.329   
 772.600  4.348    -99999.000 28.212   
 772.800  4.332    -99999.000 28.094   
 773.000  4.317    -99999.000 27.977   
 773.200  4.301    -99999.000 27.860   
 773.400  4.286    -99999.000 27.742   
 773.600  4.270    -99999.000 27.625   
 773.800  4.254    -99999.000 27.508   
 774.000  4.239    -99999.000 27.390   
 774.200  4.223    -99999.000 27.273   
 774.400  4.208    -99999.000 27.156   
 774.600  4.192    -99999.000 27.038   
 774.800  4.176    -99999.000 26.921   
 775.000  4.161    -99999.000 26.804   
 775.200  4.145    -99999.000 26.686   
 775.400  4.130    -99999.000 26.569   
 775.600  4.114    -99999.000 26.452   
 775.800  4.064    -99999.000 26.335   
 776.000  3.733    -99999.000 27.508   
 776.200  3.529    -99999.000 28.100   
 776.400  3.785    -99999.000 27.604   
 776.600  4.042    -99999.000 27.706   
 776.800  4.298    -99999.000 29.392   
 777.000  4.381    -99999.000 29.699   
 777.200  4.323    -99999.000 29.668   
 777.400  4.730    -99999.000 30.569   
 777.600  5.136    -99999.000 31.257   
 777.800  5.536    -99999.000 29.081   
 778.000  4.917    -99999.000 26.314   
 778.200  5.098    -99999.000 27.058   
 778.400  5.556    -99999.000 26.130   
 778.600  5.779    -99999.000 26.283   
 778.800  5.152    -99999.000 26.840   
 779.000  4.835    -99999.000 26.998   
 779.200  5.174    -99999.000 26.105   
 779.400  5.513    -99999.000 26.230   
 779.600  5.851    -99999.000 26.797   
 779.800  5.541    -99999.000 26.443   
 780.000  4.663    -99999.000 26.371   
 780.200  4.133    -99999.000 27.363   
 780.400  4.331    -99999.000 25.612   
 780.600  4.529    -99999.000 26.054   
 780.800  4.728    -99999.000 27.443   
 781.000  3.326    -99999.000 28.831   
 781.200  3.508    -99999.000 28.002   
 781.400  3.422    -99999.000 27.470   
 781.600  3.407    -99999.000 27.632   
 781.800  3.671    -99999.000 24.783   
 782.000  3.935    -99999.000 25.713   
 782.200  2.947    -99999.000 26.643   
 782.400  2.160    -99999.000 25.817   
 782.600  2.502    -99999.000 25.792   
 782.800  2.329    -99999.000 26.508   
 783.000  2.433    -99999.000 27.225   
 783.200  2.380    -99999.000 25.437   
 783.400  2.159    -99999.000 24.161   
 783.600  2.301    -99999.000 24.261   
 783.800  2.436    -99999.000 22.888   
 784.000  2.362    -99999.000 24.659   
 784.200  2.517    -99999.000 25.953   
 784.400  2.470    -99999.000 23.609   
 784.600  2.206    -99999.000 24.294   
 784.800  2.197    -99999.000 23.551   
 785.000  2.367    -99999.000 22.807   
 785.200  2.335    -99999.000 22.133   
 785.400  2.214    -99999.000 24.998   
 785.600  2.412    -99999.000 27.864   
 785.800  2.373    -99999.000 29.619   
 786.000  2.130    -99999.000 26.247   
 786.200  1.887    -99999.000 25.193   
 786.400  1.646    -99999.000 25.689   
 786.600  2.125    -99999.000 26.185   
 786.800  2.832    -99999.000 24.748   
 787.000  3.539    -99999.000 22.693   
 787.200  4.246    -99999.000 22.579   
 787.400  4.940    -99999.000 23.572   
 787.600  4.745    -99999.000 23.324   
 787.800  4.960    -99999.000 23.076   
 788.000  4.590    -99999.000 22.829   
 788.200  3.898    -99999.000 23.023   
 788.400  4.254    -99999.000 23.668   
 788.600  4.611    -99999.000 24.313   
 788.800  4.887    -99999.000 24.218   
 789.000  3.972    -99999.000 22.681   
 789.200  3.058    -99999.000 21.143   
 789.400  2.369    -99999.000 20.258   
 789.600  2.469    -99999.000 22.313   
 789.800  2.561    -99999.000 24.367   
 790.000  2.140    -99999.000 26.422   
 790.200  2.215    -99999.000 28.476   
 790.400  2.457    -99999.000 25.065   
 790.600  2.699    -99999.000 25.708   
 790.800  2.940    -99999.000 25.014   
 791.000  3.182    -99999.000 25.388   
 791.200  2.956    -99999.000 26.463   
 791.400  2.956    -99999.000 23.607   
 791.600  3.100    -99999.000 23.985   
 791.800  3.245    -99999.000 30.355   
 792.000  3.272    -99999.000 36.726   
 792.200  2.995    -99999.000 43.097   
 792.400  2.717    -99999.000 44.399   
 792.600  2.514    -99999.000 35.968   
 792.800  2.861    -99999.000 27.538   
 793.000  2.911    -99999.000 20.852   
 793.200  2.911    -99999.000 21.844   
 793.400  2.768    -99999.000 22.835   
 793.600  2.684    -99999.000 22.135   
 793.800  3.510    -99999.000 21.391   
 794.000  4.177    -99999.000 20.647   
 794.200  4.078    -99999.000 21.187   
 794.400  4.175    -99999.000 22.014   
 794.600  4.360    -99999.000 22.154   
 794.800  4.456    -99999.000 22.118   
 795.000  4.091    -99999.000 22.043   
 795.200  3.775    -99999.000 23.530   
 795.400  4.044    -99999.000 23.104   
 795.600  5.320    -99999.000 22.767   
 795.800  6.596    -99999.000 24.007   
 796.000  6.110    -99999.000 22.621   
 796.200  4.866    -99999.000 21.773   
 796.400  3.623    -99999.000 21.754   
 796.600  2.948    -99999.000 23.986   
 796.800  4.222    -99999.000 26.218   
 797.000  5.495    -99999.000 28.449   
 797.200  6.768    -99999.000 27.538   
 797.400  7.591    -99999.000 21.318   
 797.600  5.141    -99999.000 21.602   
 797.800  2.691    -99999.000 21.885   
 798.000  2.752    -99999.000 18.163   
 798.200  3.058    -99999.000 19.114   
 798.400  3.364    -99999.000 18.650   
 798.600  3.125    -99999.000 17.475   
 798.800  2.368    -99999.000 18.591   
 799.000  2.483    -99999.000 18.177   
 799.200  2.456    -99999.000 18.794   
 799.400  2.380    -99999.000 20.480   
 799.600  2.480    -99999.000 19.938   
 799.800  2.476    -99999.000 20.985   
 800.000  2.257    -99999.000 22.032   
 800.200  2.581    -99999.000 21.791   
 800.400  2.906    -99999.000 21.694   
 800.600  3.231    -99999.000 21.583   
 800.800  3.556    -99999.000 20.777   
 801.000  3.881    -99999.000 20.260   
 801.200  3.344    -99999.000 22.740   
 801.400  3.158    -99999.000 24.664   
 801.600  3.438    -99999.000 24.279   
 801.800  3.719    -99999.000 23.893   
 802.000  4.000    -99999.000 23.899   
 802.200  3.465    -99999.000 24.627   
 802.400  3.729    -99999.000 25.354   
 802.600  3.994    -99999.000 26.081   
 802.800  3.508    -99999.000 26.809   
 803.000  2.898    -99999.000 26.721   
 803.200  3.022    -99999.000 26.142   
 803.400  2.824    -99999.000 26.081   
 803.600  2.877    -99999.000 27.073   
 803.800  2.990    -99999.000 28.211   
 804.000  2.878    -99999.000 28.337   
 804.200  2.915    -99999.000 27.737   
 804.400  3.113    -99999.000 28.332   
 804.600  3.011    -99999.000 27.780   
 804.800  2.813    -99999.000 27.701   
 805.000  2.831    -99999.000 28.693   
 805.200  3.029    -99999.000 29.684   
 805.400  2.998    -99999.000 28.580   
 805.600  2.844    -99999.000 26.183   
 805.800  2.690    -99999.000 26.001   
 806.000  2.761    -99999.000 26.662   
 806.200  2.698    -99999.000 27.323   
 806.400  2.860    -99999.000 26.087   
 806.600  3.022    -99999.000 26.688   
 806.800  3.184    -99999.000 27.334   
 807.000  3.127    -99999.000 25.723   
 807.200  3.000    -99999.000 24.111   
 807.400  3.151    -99999.000 24.046   
 807.600  3.534    -99999.000 25.434   
 807.800  3.607    -99999.000 26.823   
 808.000  3.072    -99999.000 28.211   
 808.200  2.992    -99999.000 29.600   
 808.400  2.237    -99999.000 28.580   
 808.600  2.495    -99999.000 26.880   
 808.800  2.753    -99999.000 26.915   
 809.000  3.001    -99999.000 28.261   
