~VERSION INFORMATION
 VERS.                          2.0 :CWLS LOG ASCII STANDARD [logix (c) Softland]
 WRAP.                          NO  : ONE LINE PER DEPTH STEP
~WELL INFORMATION
#MNEM.UNIT           DATA                         :DESCRIPTION
#----.----           ----------                      ----------------
 STRT.M  246.000                                  :START DEPTH
 STOP.M  870.000                                  :STOP  DEPTH
 STEP.M 0.200                                     :STEP
 NULL.  -99999.000                                :NULL VALUE
 ALT.M    0.000                                    :KB or GL
 COMP.  Нефтяная компания                          :OIL COMPANY
 WELL.  17                                         :WELL
 FLD .  первое                                     :FIELD
 LOC .                                             :LOCATION
 CTRY.                                             :COUNTRY
 SRVC.                                             :SERVICE COMPANY
 DATE.  15-02-1971                                 :DATE
 API .                                             :API NUMBER
 UWI .                                             :UNIVERSAL WELL INDEX
~Curve Information Section
#MNEM.UNIT           API CODE                       Curve Description
#----.----           ----------                      ----------------
 DEPT.M                       :
 PZ.OHMM                      :
 GZ6.OHMM                     :
 PS.MV                        :
~A DEPT PZ GZ6.OHMM PS
# ...
 849.200  2.743    -99999.000 33.382   
 849.400  2.842    -99999.000 33.962   
 849.600  2.941    -99999.000 33.254   
 849.800  3.020    -99999.000 32.545   
 850.000  2.640    -99999.000 31.837   
 850.200  2.335    -99999.000 31.128   
 850.400  2.464    -99999.000 31.534   
 850.600  2.593    -99999.000 32.181   
 850.800  2.722    -99999.000 32.828   
 851.000  2.517    -99999.000 33.474   
 851.200  2.615    -99999.000 34.121   
 851.400  2.627    -99999.000 34.768   
 851.600  2.825    -99999.000 35.415   
 851.800  2.923    -99999.000 35.461   
 852.000  2.725    -99999.000 35.036   
 852.200  2.782    -99999.000 34.986   
 852.400  2.747    -99999.000 35.630   
 852.600  2.577    -99999.000 36.275   
 852.800  2.488    -99999.000 36.451   
 853.000  2.719    -99999.000 34.665   
 853.200  2.951    -99999.000 32.880   
 853.400  3.017    -99999.000 31.171   
 853.600  2.789    -99999.000 31.501   
 853.800  2.561    -99999.000 31.627   
 854.000  2.429    -99999.000 30.511   
 854.200  2.677    -99999.000 31.168   
 854.400  2.777    -99999.000 32.070   
 854.600  2.736    -99999.000 32.971   
 854.800  2.808    -99999.000 31.965   
 855.000  2.561    -99999.000 30.162   
 855.200  2.313    -99999.000 30.720   
 855.400  2.523    -99999.000 31.278   
 855.600  2.473    -99999.000 31.836   
 855.800  2.423    -99999.000 32.393   
 856.000  2.772    -99999.000 31.262   
 856.200  2.740    -99999.000 28.298   
 856.400  2.668    -99999.000 29.091   
 856.600  3.015    -99999.000 28.735   
 856.800  2.818    -99999.000 28.058   
 857.000  2.611    -99999.000 28.678   
 857.200  2.892    -99999.000 29.298   
 857.400  3.172    -99999.000 27.896   
 857.600  3.453    -99999.000 26.370   
 857.800  3.734    -99999.000 26.701   
 858.000  4.015    -99999.000 27.031   
 858.200  4.144    -99999.000 27.090   
 858.400  4.005    -99999.000 26.656   
 858.600  4.150    -99999.000 26.222   
 858.800  4.179    -99999.000 26.384   
 859.000  4.031    -99999.000 26.667   
 859.200  4.273    -99999.000 26.604   
 859.400  4.718    -99999.000 26.328   
 859.600  4.544    -99999.000 26.053   
 859.800  5.051    -99999.000 26.292   
 860.000  5.332    -99999.000 26.678   
 860.200  5.453    -99999.000 27.064   
 860.400  5.602    -99999.000 26.274   
 860.600  5.593    -99999.000 25.806   
 860.800  5.310    -99999.000 25.530   
 861.000  5.038    -99999.000 25.255   
 861.200  4.825    -99999.000 25.312   
 861.400  4.613    -99999.000 25.436   
 861.600  4.835    -99999.000 25.560   
 861.800  4.833    -99999.000 25.660   
 862.000  4.760    -99999.000 25.235   
 862.200  5.018    -99999.000 24.810   
 862.400  4.879    -99999.000 25.015   
 862.600  5.105    -99999.000 25.345   
 862.800  4.634    -99999.000 25.676   
 863.000  4.840    -99999.000 25.088   
 863.200  5.048    -99999.000 24.846   
 863.400  5.256    -99999.000 25.105   
 863.600  5.217    -99999.000 25.364   
 863.800  5.130    -99999.000 25.622   
 864.000  5.167    -99999.000 25.881   
 864.200  5.477    -99999.000 26.140   
 864.400  5.787    -99999.000 26.399   
 864.600  5.716    -99999.000 26.410   
 864.800  5.543    -99999.000 25.046   
 865.000  5.370    -99999.000 26.219   
 865.200  5.196    -99999.000 26.130   
 865.400  5.284    -99999.000 25.944   
 865.600  5.372    -99999.000 26.317   
 865.800  5.415    -99999.000 27.474   
 866.000  5.217    -99999.000 28.631   
 866.200  5.234    -99999.000 27.888   
 866.400  5.276    -99999.000 27.690   
 866.600  -99999.000 -99999.000 28.648   
 866.800  -99999.000 -99999.000 29.607   
 867.000  -99999.000 -99999.000 30.566   
 867.200  -99999.000 -99999.000 31.525   
 867.400  -99999.000 -99999.000 -99999.000 
 867.600  -99999.000 -99999.000 -99999.000 
 867.800  -99999.000 -99999.000 -99999.000 
 868.000  -99999.000 -99999.000 -99999.000 
 868.200  -99999.000 -99999.000 -99999.000 
 868.400  -99999.000 -99999.000 -99999.000 
 868.600  -99999.000 -99999.000 -99999.000 
 868.800  -99999.000 -99999.000 -99999.000 
 869.000  -99999.000 -99999.000 -99999.000 
 869.200  -99999.000 -99999.000 -99999.000 
 869.400  -99999.000 -99999.000 -99999.000 
 869.600  -99999.000 -99999.000 -99999.000 
 869.800  -99999.000 -99999.000 -99999.000 
 870.000  -99999.000 -99999.000 -99999.000 
