~VERSION INFORMATION
 VERS.                          2.0 :CWLS LOG ASCII STANDARD [logix (c) Softland]
 WRAP.                          NO  : ONE LINE PER DEPTH STEP
~WELL INFORMATION
#MNEM.UNIT           DATA                         :DESCRIPTION
#----.----           ----------                      ----------------
 STRT.M  246.000                                  :START DEPTH
 STOP.M  870.000                                  :STOP  DEPTH
 STEP.M 0.200                                     :STEP
 NULL.  -99999.000                                :NULL VALUE
 ALT.M    0.000                                    :KB or GL
 COMP.  Нефтяная компания                          :OIL COMPANY
 WELL.  17                                         :WELL
 FLD .  первое                                     :FIELD
 LOC .                                             :LOCATION
 CTRY.                                             :COUNTRY
 SRVC.                                             :SERVICE COMPANY
 DATE.  15-02-1971                                 :DATE
 API .                                             :API NUMBER
 UWI .                                             :UNIVERSAL WELL INDEX
~Curve Information Section
#MNEM.UNIT           API CODE                       Curve Description
#----.----           ----------                      ----------------
 DEPT.M                       :
 PZ.OHMM                      :
 GZ6.OHMM                     :
 PS.MV                        :
~A DEPT PZ GZ6.OHMM PS
 246.000  2.879    -99999.000 -99999.000 
 246.200  2.874    -99999.000 -99999.000 
 246.400  2.911    -99999.000 -99999.000 
 246.600  2.926    -99999.000 44.312   
 246.800  2.942    -99999.000 45.304   
 247.000  2.822    -99999.000 44.743   
 247.200  2.817    -99999.000 43.060   
 247.400  2.786    -99999.000 43.977   
 247.600  2.786    -99999.000 44.894   
 247.800  2.786    -99999.000 45.812   
 248.000  2.786    -99999.000 46.729   
 248.200  2.786    -99999.000 47.647   
 248.400  2.786    -99999.000 48.564   
 248.600  2.786    -99999.000 46.096   
 248.800  2.796    -99999.000 42.084   
 249.000  2.879    -99999.000 38.071   
 249.200  2.879    -99999.000 35.101   
 249.400  2.911    -99999.000 35.962   
 249.600  2.879    -99999.000 36.823   
 249.800  2.879    -99999.000 37.685   
 250.000  2.879    -99999.000 38.546   
 250.200  2.879    -99999.000 39.407   
 250.400  2.942    -99999.000 39.146   
 250.600  2.942    -99999.000 34.781   
 250.800  2.973    -99999.000 33.762   
 251.000  2.979    -99999.000 34.451   
 251.200  2.973    -99999.000 32.208   
 251.400  2.895    -99999.000 33.200   
 251.600  2.879    -99999.000 33.362   
 251.800  2.817    -99999.000 32.796   
 252.000  2.817    -99999.000 32.672   
 252.200  2.848    -99999.000 33.484   
 252.400  2.848    -99999.000 34.295   
 252.600  2.879    -99999.000 35.107   
 252.800  2.879    -99999.000 32.704   
 253.000  2.879    -99999.000 30.781   
 253.200  2.911    -99999.000 31.702   
 253.400  2.911    -99999.000 32.527   
 253.600  2.942    -99999.000 31.851   
 253.800  2.942    -99999.000 31.175   
 254.000  2.911    -99999.000 30.498   
 254.200  2.853    -99999.000 31.259   
 254.400  2.817    -99999.000 33.030   
 254.600  2.811    -99999.000 34.801   
 254.800  2.786    -99999.000 36.573   
 255.000  2.879    -99999.000 37.587   
 255.200  3.214    -99999.000 34.824   
 255.400  3.224    -99999.000 32.061   
 255.600  3.224    -99999.000 32.891   
 255.800  3.187    -99999.000 33.882   
 256.000  3.056    -99999.000 34.874   
 256.200  2.957    -99999.000 34.053   
 256.400  2.942    -99999.000 32.778   
 256.600  2.911    -99999.000 32.919   
 256.800  2.879    -99999.000 34.046   
 257.000  2.848    -99999.000 35.173   
 257.200  2.754    -99999.000 35.784   
 257.400  2.707    -99999.000 33.297   
 257.600  2.670    -99999.000 34.826   
 257.800  2.624    -99999.000 36.355   
 258.000  2.724    -99999.000 37.884   
 258.200  2.942    -99999.000 38.380   
 258.400  3.005    -99999.000 37.195   
 258.600  3.021    -99999.000 36.010   
 258.800  3.036    -99999.000 34.826   
 259.000  2.947    -99999.000 33.641   
 259.200  2.942    -99999.000 32.456   
 259.400  2.911    -99999.000 32.652   
 259.600  2.911    -99999.000 33.292   
 259.800  2.942    -99999.000 32.796   
 260.000  2.942    -99999.000 32.300   
 260.200  2.938    -99999.000 32.745   
 260.400  2.973    -99999.000 33.813   
 260.600  2.973    -99999.000 33.317   
 260.800  2.973    -99999.000 34.354   
 261.000  2.894    -99999.000 35.897   
 261.200  2.848    -99999.000 37.440   
 261.400  2.848    -99999.000 37.320   
 261.600  2.879    -99999.000 37.037   
 261.800  2.873    -99999.000 37.068   
 262.000  2.817    -99999.000 37.233   
 262.200  2.817    -99999.000 37.215   
 262.400  2.817    -99999.000 37.153   
 262.600  2.853    -99999.000 37.247   
 262.800  2.785    -99999.000 37.743   
 263.000  2.723    -99999.000 37.544   
 263.200  2.734    -99999.000 37.863   
 263.400  2.817    -99999.000 38.749   
 263.600  2.901    -99999.000 37.392   
 263.800  2.973    -99999.000 36.035   
 264.000  2.973    -99999.000 34.678   
 264.200  2.942    -99999.000 33.320   
 264.400  2.891    -99999.000 31.963   
 264.600  3.005    -99999.000 31.446   
 264.800  3.005    -99999.000 34.847   
 265.000  2.978    -99999.000 38.248   
 265.200  2.972    -99999.000 32.337   
 265.400  2.811    -99999.000 33.050   
 265.600  2.649    -99999.000 33.763   
 265.800  2.504    -99999.000 34.476   
 266.000  2.451    -99999.000 35.189   
 266.200  2.379    -99999.000 34.792   
 266.400  2.347    -99999.000 31.591   
 266.600  2.347    -99999.000 28.390   
 266.800  2.316    -99999.000 25.189   
 267.000  2.316    -99999.000 26.508   
 267.200  2.285    -99999.000 28.883   
 267.400  2.285    -99999.000 31.258   
 267.600  2.285    -99999.000 33.633   
 267.800  2.285    -99999.000 36.009   
 268.000  2.254    -99999.000 38.384   
 268.200  2.205    -99999.000 35.862   
 268.400  2.128    -99999.000 32.204   
 268.600  2.191    -99999.000 30.408   
 268.800  2.255    -99999.000 33.260   
 269.000  2.285    -99999.000 36.112   
 269.200  2.285    -99999.000 38.963   
 269.400  2.347    -99999.000 39.344   
 269.600  2.285    -99999.000 37.229   
 269.800  2.285    -99999.000 35.113   
 270.000  2.317    -99999.000 32.997   
 270.200  2.441    -99999.000 30.881   
 270.400  2.516    -99999.000 32.610   
 270.600  2.567    -99999.000 35.544   
 270.800  2.513    -99999.000 38.478   
 271.000  2.383    -99999.000 41.413   
 271.200  2.284    -99999.000 41.064   
 271.400  2.191    -99999.000 40.623   
 271.600  2.097    -99999.000 40.197   
 271.800  2.017    -99999.000 40.588   
 272.000  1.972    -99999.000 44.184   
 272.200  2.031    -99999.000 31.376   
 272.400  2.067    -99999.000 31.045   
 272.600  2.128    -99999.000 29.893   
 272.800  2.140    -99999.000 27.485   
 273.000  2.128    -99999.000 25.724   
 273.200  2.254    -99999.000 26.815   
 273.400  2.281    -99999.000 27.906   
 273.600  2.441    -99999.000 28.935   
 273.800  2.511    -99999.000 27.820   
 274.000  2.598    -99999.000 27.810   
 274.200  2.567    -99999.000 28.141   
 274.400  2.513    -99999.000 28.472   
 274.600  2.441    -99999.000 27.276   
 274.800  2.441    -99999.000 26.009   
 275.000  2.441    -99999.000 26.615   
 275.200  2.453    -99999.000 27.222   
 275.400  2.473    -99999.000 27.828   
 275.600  2.495    -99999.000 28.434   
 275.800  2.504    -99999.000 29.040   
 276.000  2.473    -99999.000 29.207   
 276.200  2.473    -99999.000 28.546   
 276.400  2.441    -99999.000 28.542   
 276.600  2.441    -99999.000 29.336   
 276.800  2.504    -99999.000 30.129   
 277.000  2.504    -99999.000 30.923   
 277.200  2.473    -99999.000 31.716   
 277.400  2.473    -99999.000 30.978   
 277.600  2.441    -99999.000 29.632   
 277.800  2.441    -99999.000 29.594   
 278.000  2.410    -99999.000 30.833   
 278.200  2.469    -99999.000 32.073   
 278.400  2.662    -99999.000 33.313   
 278.600  2.824    -99999.000 34.553   
 278.800  2.985    -99999.000 35.793   
 279.000  3.053    -99999.000 35.847   
 279.200  3.161    -99999.000 34.034   
 279.400  3.192    -99999.000 34.695   
 279.600  3.253    -99999.000 35.357   
 279.800  3.154    -99999.000 34.571   
 280.000  3.118    -99999.000 33.219   
 280.200  3.005    -99999.000 31.866   
 280.400  3.036    -99999.000 30.954   
 280.600  3.036    -99999.000 31.394   
 280.800  3.036    -99999.000 31.835   
 281.000  3.043    -99999.000 31.898   
 281.200  3.067    -99999.000 31.402   
 281.400  2.987    -99999.000 31.117   
 281.600  3.005    -99999.000 31.712   
 281.800  3.067    -99999.000 32.308   
 282.000  3.100    -99999.000 32.919   
 282.200  3.200    -99999.000 33.952   
 282.400  3.299    -99999.000 34.985   
 282.600  3.318    -99999.000 36.018   
 282.800  3.264    -99999.000 36.458   
 283.000  3.227    -99999.000 35.094   
 283.200  3.192    -99999.000 33.730   
 283.400  3.192    -99999.000 33.924   
 283.600  3.192    -99999.000 34.433   
 283.800  3.192    -99999.000 33.243   
 284.000  3.192    -99999.000 33.310   
 284.200  3.164    -99999.000 34.347   
 284.400  3.161    -99999.000 35.384   
 284.600  3.130    -99999.000 36.209   
 284.800  3.130    -99999.000 34.942   
 285.000  3.099    -99999.000 33.675   
 285.200  3.121    -99999.000 33.006   
 285.400  3.161    -99999.000 34.130   
 285.600  3.161    -99999.000 35.254   
 285.800  3.161    -99999.000 36.378   
