~VERSION INFORMATION
 VERS.                          2.0 :CWLS LOG ASCII STANDARD [logix (c) Softland]
 WRAP.                          NO  : ONE LINE PER DEPTH STEP
~WELL INFORMATION
#MNEM.UNIT           DATA                         :DESCRIPTION
#----.----           ----------                      ----------------
 STRT.M  246.000                                  :START DEPTH
 STOP.M  870.000                                  :STOP  DEPTH
 STEP.M 0.200                                     :STEP
 NULL.  -99999.000                                :NULL VALUE
 ALT.M    0.000                                    :KB or GL
 COMP.  Нефтяная компания                          :OIL COMPANY
 WELL.  17                                         :WELL
 FLD .  первое                                     :FIELD
 LOC .                                             :LOCATION
 CTRY.                                             :COUNTRY
 SRVC.                                             :SERVICE COMPANY
 DATE.  15-02-1971                                 :DATE
 API .                                             :API NUMBER
 UWI .                                             :UNIVERSAL WELL INDEX
~Curve Information Section
#MNEM.UNIT           API CODE                       Curve Description
#----.----           ----------                      ----------------
 DEPT.M                       :
 PZ.OHMM                      :
 GZ6.OHMM                     :
 PS.MV                        :
~A DEPT PZ GZ6.OHMM PS
# ...
 326.000  1.972    -99999.000 24.101   
 326.200  2.097    -99999.000 24.127   
 326.400  2.254    -99999.000 24.426   
 326.600  2.325    -99999.000 24.672   
 326.800  2.410    -99999.000 24.269   
 327.000  2.430    -99999.000 23.956   
 327.200  2.473    -99999.000 23.956   
 327.400  2.442    -99999.000 24.113   
 327.600  2.414    -99999.000 24.426   
 327.800  2.347    -99999.000 24.113   
 328.000  2.333    -99999.000 23.800   
 328.200  2.347    -99999.000 23.919   
 328.400  2.354    -99999.000 23.800   
 328.600  2.255    -99999.000 24.128   
 328.800  2.191    -99999.000 24.154   
 329.000  2.263    -99999.000 24.650   
 329.200  2.347    -99999.000 24.739   
 329.400  2.202    -99999.000 24.896   
 329.600  2.041    -99999.000 24.749   
 329.800  1.879    -99999.000 24.253   
 330.000  1.882    -99999.000 23.956   
 330.200  1.919    -99999.000 23.731   
 330.400  2.112    -99999.000 23.956   
 330.600  2.211    -99999.000 23.956   
 330.800  2.279    -99999.000 23.800   
 331.000  2.347    -99999.000 23.956   
 331.200  2.347    -99999.000 23.956   
 331.400  2.316    -99999.000 24.113   
 331.600  2.301    -99999.000 23.956   
 331.800  2.254    -99999.000 23.956   
 332.000  2.373    -99999.000 23.809   
 332.200  2.472    -99999.000 23.643   
 332.400  2.473    -99999.000 23.686   
 332.600  2.400    -99999.000 24.026   
 332.800  2.379    -99999.000 23.956   
 333.000  2.316    -99999.000 24.113   
 333.200  2.316    -99999.000 24.113   
 333.400  2.316    -99999.000 23.956   
 333.600  2.352    -99999.000 23.800   
 333.800  2.379    -99999.000 23.870   
 334.000  2.379    -99999.000 24.113   
 334.200  2.379    -99999.000 23.990   
 334.400  2.353    -99999.000 23.956   
 334.600  2.379    -99999.000 23.468   
 334.800  2.406    -99999.000 23.218   
 335.000  2.379    -99999.000 23.330   
 335.200  2.395    -99999.000 23.173   
 335.400  2.379    -99999.000 23.330   
 335.600  2.316    -99999.000 23.330   
 335.800  2.316    -99999.000 23.643   
 336.000  2.289    -99999.000 23.643   
 336.200  2.316    -99999.000 23.643   
 336.400  2.331    -99999.000 23.741   
 336.600  2.347    -99999.000 24.080   
 336.800  2.322    -99999.000 23.643   
 337.000  2.347    -99999.000 23.643   
 337.200  2.312    -99999.000 23.643   
 337.400  2.254    -99999.000 23.643   
 337.600  2.254    -99999.000 23.741   
 337.800  2.254    -99999.000 23.643   
 338.000  2.310    -99999.000 23.794   
 338.200  2.379    -99999.000 23.956   
 338.400  2.383    -99999.000 23.800   
 338.600  2.347    -99999.000 23.956   
 338.800  2.301    -99999.000 23.956   
 339.000  2.285    -99999.000 23.800   
 339.200  2.285    -99999.000 23.800   
 339.400  2.285    -99999.000 23.800   
 339.600  2.254    -99999.000 23.800   
 339.800  2.316    -99999.000 23.643   
 340.000  2.363    -99999.000 23.742   
 340.200  2.441    -99999.000 23.643   
 340.400  2.498    -99999.000 23.486   
 340.600  2.504    -99999.000 23.643   
 340.800  2.567    -99999.000 23.643   
 341.000  2.660    -99999.000 23.956   
 341.200  2.692    -99999.000 23.956   
 341.400  2.640    -99999.000 23.830   
 341.600  2.598    -99999.000 23.643   
 341.800  2.598    -99999.000 23.173   
 342.000  2.567    -99999.000 23.378   
 342.200  2.598    -99999.000 23.561   
 342.400  2.598    -99999.000 24.426   
 342.600  2.556    -99999.000 24.553   
 342.800  2.567    -99999.000 25.049   
 343.000  2.535    -99999.000 25.701   
 343.200  2.504    -99999.000 25.835   
 343.400  2.504    -99999.000 26.148   
 343.600  2.504    -99999.000 26.305   
 343.800  2.535    -99999.000 26.177   
 344.000  2.535    -99999.000 25.992   
 344.200  2.598    -99999.000 25.992   
 344.400  2.603    -99999.000 25.992   
 344.600  2.598    -99999.000 26.148   
 344.800  2.582    -99999.000 26.305   
 345.000  2.567    -99999.000 25.992   
 345.200  2.504    -99999.000 25.992   
 345.400  2.504    -99999.000 25.835   
 345.600  2.535    -99999.000 25.728   
 345.800  2.556    -99999.000 25.835   
 346.000  2.535    -99999.000 25.835   
 346.200  2.473    -99999.000 25.835   
 346.400  2.530    -99999.000 25.835   
 346.600  2.598    -99999.000 26.148   
 346.800  2.692    -99999.000 26.140   
 347.000  2.817    -99999.000 26.120   
 347.200  2.879    -99999.000 26.100   
 347.400  2.932    -99999.000 26.080   
 347.600  2.942    -99999.000 26.061   
 347.800  2.880    -99999.000 26.041   
 348.000  2.947    -99999.000 26.021   
 348.200  3.036    -99999.000 26.001   
 348.400  3.020    -99999.000 25.892   
 348.600  2.859    -99999.000 25.701   
 348.800  2.540    -99999.000 25.510   
 349.000  2.441    -99999.000 25.319   
 349.200  2.347    -99999.000 25.268   
 349.400  2.358    -99999.000 25.410   
 349.600  2.457    -99999.000 25.552   
 349.800  2.504    -99999.000 25.693   
 350.000  2.415    -99999.000 25.835   
 350.200  2.285    -99999.000 25.557   
 350.400  2.353    -99999.000 25.280   
 350.600  2.410    -99999.000 25.002   
 350.800  2.371    -99999.000 24.724   
 351.000  1.925    -99999.000 24.446   
 351.200  2.055    -99999.000 24.169   
 351.400  1.997    -99999.000 23.891   
 351.600  1.925    -99999.000 23.641   
 351.800  1.853    -99999.000 23.618   
 352.000  1.815    -99999.000 23.596   
 352.200  1.868    -99999.000 23.573   
 352.400  1.967    -99999.000 23.550   
 352.600  2.003    -99999.000 23.528   
 352.800  1.935    -99999.000 23.505   
 353.000  1.920    -99999.000 23.508   
 353.200  1.847    -99999.000 23.645   
 353.400  1.794    -99999.000 23.782   
 353.600  1.904    -99999.000 23.919   
 353.800  1.972    -99999.000 24.056   
 354.000  1.966    -99999.000 24.192   
 354.200  1.878    -99999.000 24.329   
 354.400  1.784    -99999.000 24.466   
 354.600  1.721    -99999.000 24.603   
 354.800  1.721    -99999.000 24.739   
 355.000  1.721    -99999.000 24.682   
 355.200  1.758    -99999.000 24.624   
 355.400  1.878    -99999.000 24.567   
 355.600  1.925    -99999.000 24.510   
 355.800  1.941    -99999.000 24.453   
 356.000  2.066    -99999.000 24.395   
 356.200  2.191    -99999.000 24.338   
 356.400  2.347    -99999.000 24.281   
 356.600  2.254    -99999.000 24.113   
 356.800  2.254    -99999.000 24.113   
 357.000  2.191    -99999.000 23.800   
 357.200  2.133    -99999.000 23.956   
 357.400  2.128    -99999.000 23.986   
 357.600  2.123    -99999.000 24.012   
 357.800  2.160    -99999.000 24.508   
 358.000  2.160    -99999.000 24.739   
 358.200  2.034    -99999.000 25.209   
 358.400  2.061    -99999.000 25.361   
 358.600  2.160    -99999.000 25.209   
 358.800  2.290    -99999.000 24.896   
 359.000  2.274    -99999.000 24.582   
 359.200  2.191    -99999.000 24.473   
 359.400  2.201    -99999.000 24.426   
 359.600  2.128    -99999.000 24.269   
 359.800  2.066    -99999.000 24.144   
 360.000  2.066    -99999.000 24.269   
 360.200  2.066    -99999.000 24.113   
 360.400  2.128    -99999.000 24.113   
 360.600  2.128    -99999.000 24.113   
 360.800  2.160    -99999.000 24.113   
 361.000  2.160    -99999.000 23.956   
 361.200  2.128    -99999.000 23.956   
 361.400  2.160    -99999.000 23.800   
 361.600  2.160    -99999.000 23.800   
 361.800  2.160    -99999.000 23.800   
 362.000  2.160    -99999.000 23.800   
 362.200  2.191    -99999.000 23.767   
 362.400  2.197    -99999.000 23.800   
 362.600  2.254    -99999.000 24.041   
 362.800  2.254    -99999.000 24.269   
 363.000  2.254    -99999.000 23.956   
 363.200  2.254    -99999.000 24.113   
 363.400  2.254    -99999.000 24.113   
 363.600  2.279    -99999.000 24.269   
 363.800  2.254    -99999.000 24.269   
 364.000  2.285    -99999.000 24.113   
 364.200  2.285    -99999.000 24.250   
 364.400  2.316    -99999.000 24.269   
 364.600  2.316    -99999.000 24.269   
 364.800  2.347    -99999.000 24.113   
 365.000  2.316    -99999.000 24.113   
 365.200  2.316    -99999.000 24.113   
 365.400  2.254    -99999.000 24.269   
 365.600  2.280    -99999.000 24.269   
 365.800  2.285    -99999.000 24.269   
