~VERSION INFORMATION
 VERS.                          2.0 :CWLS LOG ASCII STANDARD [logix (c) Softland]
 WRAP.                          NO  : ONE LINE PER DEPTH STEP
~WELL INFORMATION
#MNEM.UNIT           DATA                         :DESCRIPTION
#----.----           ----------                      ----------------
 STRT.M  246.000                                  :START DEPTH
 STOP.M  870.000                                  :STOP  DEPTH
 STEP.M 0.200                                     :STEP
 NULL.  -99999.000                                :NULL VALUE
 ALT.M    0.000                                    :KB or GL
 COMP.  Нефтяная компания                          :OIL COMPANY
 WELL.  17                                         :WELL
 FLD .  первое                                     :FIELD
 LOC .                                             :LOCATION
 CTRY.                                             :COUNTRY
 SRVC.                                             :SERVICE COMPANY
 DATE.  15-02-1971                                 :DATE
 API .                                             :API NUMBER
 UWI .                                             :UNIVERSAL WELL INDEX
~Curve Information Section
#MNEM.UNIT           API CODE                       Curve Description
#----.----           ----------                      ----------------
 DEPT.M                       :
 PZ.OHMM                      :
 GZ6.OHMM                     :
 PS.MV                        :
~A DEPT PZ GZ6.OHMM PS
# ...
 526.000  15.017   -99999.000 71.461   
 526.200  15.473   -99999.000 73.512   
 526.400  15.929   -99999.000 62.921   
 526.600  13.536   -99999.000 52.329   
 526.800  10.040   -99999.000 41.738   
 527.000  6.543    -99999.000 31.146   
 527.200  4.311    -99999.000 31.159   
 527.400  5.922    -99999.000 35.599   
 527.600  7.533    -99999.000 40.039   
 527.800  10.651   -99999.000 44.479   
 528.000  13.185   -99999.000 48.918   
 528.200  15.720   -99999.000 53.358   
 528.400  14.495   -99999.000 56.927   
 528.600  12.756   -99999.000 49.798   
 528.800  11.017   -99999.000 42.669   
 529.000  10.370   -99999.000 40.212   
 529.200  11.320   -99999.000 41.585   
 529.400  12.270   -99999.000 42.958   
 529.600  13.220   -99999.000 44.332   
 529.800  12.336   -99999.000 42.572   
 530.000  10.313   -99999.000 36.904   
 530.200  8.291    -99999.000 33.874   
 530.400  8.368    -99999.000 39.432   
 530.600  10.912   -99999.000 44.991   
 530.800  13.457   -99999.000 50.549   
 531.000  16.001   -99999.000 56.108   
 531.200  18.545   -99999.000 61.666   
 531.400  19.247   -99999.000 67.225   
 531.600  19.244   -99999.000 72.783   
 531.800  19.241   -99999.000 73.781   
 532.000  19.238   -99999.000 72.403   
 532.200  19.235   -99999.000 71.026   
 532.400  19.232   -99999.000 71.692   
 532.600  19.229   -99999.000 72.819   
 532.800  19.226   -99999.000 73.946   
 533.000  19.223   -99999.000 73.371   
 533.200  19.220   -99999.000 69.536   
 533.400  19.218   -99999.000 65.701   
 533.600  16.846   -99999.000 61.866   
 533.800  14.445   -99999.000 58.031   
 534.000  12.044   -99999.000 57.427   
 534.200  9.643    -99999.000 57.875   
 534.400  7.242    -99999.000 38.381   
 534.600  6.152    -99999.000 42.375   
 534.800  8.064    -99999.000 46.368   
 535.000  9.976    -99999.000 50.362   
 535.200  11.887   -99999.000 54.355   
 535.400  13.799   -99999.000 58.349   
 535.600  10.377   -99999.000 53.669   
 535.800  6.251    -99999.000 35.886   
 536.000  3.136    -99999.000 21.534   
 536.200  3.292    -99999.000 21.975   
 536.400  3.448    -99999.000 22.416   
 536.600  3.117    -99999.000 22.673   
 536.800  3.224    -99999.000 22.095   
 537.000  3.401    -99999.000 21.682   
 537.200  3.578    -99999.000 21.268   
 537.400  3.755    -99999.000 20.855   
 537.600  3.749    -99999.000 21.764   
 537.800  3.531    -99999.000 22.611   
 538.000  3.703    -99999.000 23.173   
 538.200  3.625    -99999.000 22.704   
 538.400  3.365    -99999.000 22.296   
 538.600  3.147    -99999.000 21.800   
 538.800  3.332    -99999.000 21.451   
 539.000  3.516    -99999.000 21.468   
 539.200  3.388    -99999.000 22.390   
 539.400  3.219    -99999.000 22.390   
 539.600  3.051    -99999.000 22.077   
 539.800  3.197    -99999.000 21.608   
 540.000  3.165    -99999.000 22.234   
 540.200  3.049    -99999.000 22.234   
 540.400  3.141    -99999.000 21.921   
 540.600  3.260    -99999.000 21.538   
 540.800  3.379    -99999.000 21.451   
 541.000  3.203    -99999.000 22.738   
 541.200  2.917    -99999.000 23.791   
 541.400  2.630    -99999.000 25.227   
 541.600  3.564    -99999.000 26.192   
 541.800  4.655    -99999.000 27.714   
 542.000  3.562    -99999.000 27.551   
 542.200  2.993    -99999.000 26.894   
 542.400  3.191    -99999.000 28.010   
 542.600  3.252    -99999.000 27.246   
 542.800  4.639    -99999.000 28.194   
 543.000  7.117    -99999.000 31.695   
 543.200  9.595    -99999.000 35.196   
 543.400  12.074   -99999.000 38.696   
 543.600  14.552   -99999.000 42.197   
 543.800  14.562   -99999.000 45.550   
 544.000  14.085   -99999.000 45.192   
 544.200  13.607   -99999.000 44.834   
 544.400  13.553   -99999.000 44.475   
 544.600  14.247   -99999.000 44.117   
 544.800  14.941   -99999.000 43.759   
 545.000  15.634   -99999.000 43.927   
 545.200  14.626   -99999.000 45.052   
 545.400  12.346   -99999.000 46.176   
 545.600  10.066   -99999.000 47.300   
 545.800  9.144    -99999.000 48.424   
 546.000  9.071    -99999.000 48.369   
 546.200  10.062   -99999.000 47.590   
 546.400  11.053   -99999.000 47.693   
 546.600  12.044   -99999.000 49.071   
 546.800  6.753    -99999.000 50.448   
 547.000  5.847    -99999.000 25.520   
 547.200  6.568    -99999.000 28.620   
 547.400  7.288    -99999.000 31.719   
 547.600  8.008    -99999.000 34.819   
 547.800  8.729    -99999.000 37.918   
 548.000  7.809    -99999.000 40.314   
 548.200  6.881    -99999.000 39.901   
 548.400  5.953    -99999.000 40.193   
 548.600  6.287    -99999.000 42.087   
 548.800  7.780    -99999.000 43.980   
 549.000  9.273    -99999.000 45.874   
 549.200  10.766   -99999.000 41.661   
 549.400  12.259   -99999.000 42.590   
 549.600  12.456   -99999.000 43.520   
 549.800  11.187   -99999.000 41.088   
 550.000  12.029   -99999.000 43.964   
 550.200  13.131   -99999.000 46.841   
 550.400  14.158   -99999.000 49.717   
 550.600  13.742   -99999.000 52.593   
 550.800  13.628   -99999.000 55.470   
 551.000  13.856   -99999.000 58.346   
 551.200  14.084   -99999.000 61.222   
 551.400  13.730   -99999.000 55.977   
 551.600  12.095   -99999.000 48.476   
 551.800  10.459   -99999.000 43.510   
 552.000  11.149   -99999.000 45.880   
 552.200  12.470   -99999.000 48.249   
 552.400  13.792   -99999.000 50.619   
 552.600  15.114   -99999.000 52.988   
 552.800  14.870   -99999.000 55.358   
 553.000  15.125   -99999.000 57.727   
 553.200  15.520   -99999.000 60.096   
 553.400  15.693   -99999.000 62.466   
 553.600  15.867   -99999.000 62.656   
 553.800  14.995   -99999.000 62.050   
 554.000  13.593   -99999.000 61.444   
 554.200  13.780   -99999.000 62.345   
 554.400  13.968   -99999.000 61.849   
 554.600  12.719   -99999.000 62.836   
 554.800  10.062   -99999.000 63.137   
 555.000  10.359   -99999.000 61.727   
 555.200  9.222    -99999.000 54.884   
 555.400  8.082    -99999.000 48.040   
 555.600  6.942    -99999.000 41.196   
 555.800  7.666    -99999.000 34.352   
 556.000  8.742    -99999.000 32.077   
 556.200  9.818    -99999.000 36.139   
 556.400  10.894   -99999.000 40.201   
 556.600  11.970   -99999.000 44.263   
 556.800  13.047   -99999.000 48.325   
 557.000  13.364   -99999.000 52.387   
 557.200  10.830   -99999.000 56.449   
 557.400  8.295    -99999.000 55.188   
 557.600  9.130    -99999.000 52.502   
 557.800  9.967    -99999.000 49.816   
 558.000  10.803   -99999.000 47.129   
 558.200  11.639   -99999.000 48.066   
 558.400  12.476   -99999.000 49.003   
 558.600  7.612    -99999.000 49.215   
 558.800  5.910    -99999.000 45.578   
 559.000  5.811    -99999.000 41.941   
 559.200  6.455    -99999.000 38.305   
 559.400  7.923    -99999.000 34.668   
 559.600  9.391    -99999.000 35.324   
 559.800  10.859   -99999.000 41.845   
 560.000  12.327   -99999.000 48.367   
 560.200  13.795   -99999.000 54.888   
 560.400  15.263   -99999.000 61.409   
 560.600  13.873   -99999.000 67.931   
 560.800  11.953   -99999.000 72.582   
 561.000  10.032   -99999.000 61.795   
 561.200  8.112    -99999.000 51.009   
 561.400  6.191    -99999.000 40.223   
 561.600  7.009    -99999.000 33.855   
 561.800  8.550    -99999.000 36.904   
 562.000  10.090   -99999.000 39.953   
 562.200  11.631   -99999.000 43.002   
 562.400  13.171   -99999.000 46.051   
 562.600  14.712   -99999.000 49.100   
 562.800  16.252   -99999.000 52.149   
 563.000  16.893   -99999.000 55.198   
 563.200  14.206   -99999.000 58.247   
 563.400  11.520   -99999.000 38.377   
 563.600  9.048    -99999.000 36.759   
 563.800  10.225   -99999.000 39.486   
 564.000  11.402   -99999.000 42.214   
 564.200  11.595   -99999.000 44.941   
 564.400  10.912   -99999.000 47.669   
 564.600  10.229   -99999.000 43.708   
 564.800  9.979    -99999.000 38.032   
 565.000  10.452   -99999.000 32.357   
 565.200  11.007   -99999.000 41.249   
 565.400  12.029   -99999.000 49.914   
 565.600  12.048   -99999.000 44.149   
 565.800  11.906   -99999.000 38.384   
