~VERSION INFORMATION
 VERS.                          2.0 :CWLS LOG ASCII STANDARD [logix (c) Softland]
 WRAP.                          NO  : ONE LINE PER DEPTH STEP
~WELL INFORMATION
#MNEM.UNIT           DATA                         :DESCRIPTION
#----.----           ----------                      ----------------
 STRT.M  246.000                                  :START DEPTH
 STOP.M  870.000                                  :STOP  DEPTH
 STEP.M 0.200                                     :STEP
 NULL.  -99999.000                                :NULL VALUE
 ALT.M    0.000                                    :KB or GL
 COMP.  Нефтяная компания                          :OIL COMPANY
 WELL.  17                                         :WELL
 FLD .  первое                                     :FIELD
 LOC .                                             :LOCATION
 CTRY.                                             :COUNTRY
 SRVC.                                             :SERVICE COMPANY
 DATE.  15-02-1971                                 :DATE
 API .                                             :API NUMBER
 UWI .                                             :UNIVERSAL WELL INDEX
~Curve Information Section
#MNEM.UNIT           API CODE                       Curve Description
#----.----           ----------                      ----------------
 DEPT.M                       :
 PZ.OHMM                      :
 GZ6.OHMM                     :
 PS.MV                        :
~A DEPT PZ GZ6.OHMM PS
# ...
 406.000  3.609    -99999.000 22.390   
 406.200  3.709    -99999.000 22.234   
 406.400  3.908    -99999.000 22.234   
 406.600  4.098    -99999.000 22.234   
 406.800  4.274    -99999.000 22.158   
 407.000  4.451    -99999.000 22.341   
 407.200  4.444    -99999.000 22.837   
 407.400  4.257    -99999.000 23.333   
 407.600  4.070    -99999.000 23.956   
 407.800  4.048    -99999.000 23.744   
 408.000  4.111    -99999.000 22.390   
 408.200  4.174    -99999.000 22.126   
 408.400  4.194    -99999.000 21.921   
 408.600  4.029    -99999.000 22.394   
 408.800  3.941    -99999.000 22.547   
 409.000  4.041    -99999.000 22.234   
 409.200  4.140    -99999.000 22.390   
 409.400  4.110    -99999.000 21.764   
 409.600  4.040    -99999.000 21.898   
 409.800  3.971    -99999.000 22.077   
 410.000  3.981    -99999.000 22.107   
 410.200  4.043    -99999.000 21.764   
 410.400  4.092    -99999.000 21.764   
 410.600  3.993    -99999.000 21.764   
 410.800  3.894    -99999.000 22.056   
 411.000  3.969    -99999.000 22.390   
 411.200  4.184    -99999.000 22.390   
 411.400  4.399    -99999.000 22.547   
 411.600  4.614    -99999.000 22.547   
 411.800  4.828    -99999.000 22.390   
 412.000  5.043    -99999.000 22.390   
 412.200  5.258    -99999.000 22.860   
 412.400  5.473    -99999.000 23.205   
 412.600  4.798    -99999.000 23.486   
 412.800  4.333    -99999.000 23.403   
 413.000  3.958    -99999.000 23.063   
 413.200  3.584    -99999.000 22.118   
 413.400  3.655    -99999.000 21.300   
 413.600  3.790    -99999.000 21.796   
 413.800  3.925    -99999.000 22.292   
 414.000  3.957    -99999.000 22.645   
 414.200  3.833    -99999.000 22.297   
 414.400  3.709    -99999.000 21.950   
 414.600  3.812    -99999.000 21.617   
 414.800  3.949    -99999.000 22.397   
 415.000  3.993    -99999.000 23.176   
 415.200  3.866    -99999.000 23.955   
 415.400  3.738    -99999.000 24.735   
 415.600  3.611    -99999.000 24.621   
 415.800  3.483    -99999.000 23.894   
 416.000  3.529    -99999.000 23.166   
 416.200  3.533    -99999.000 22.439   
 416.400  3.434    -99999.000 21.712   
 416.600  3.437    -99999.000 21.820   
 416.800  3.561    -99999.000 22.068   
 417.000  3.684    -99999.000 22.316   
 417.200  3.808    -99999.000 22.564   
 417.400  3.932    -99999.000 22.198   
 417.600  4.056    -99999.000 21.958   
 417.800  4.139    -99999.000 22.674   
 418.000  3.969    -99999.000 23.391   
 418.200  3.799    -99999.000 23.322   
 418.400  3.866    -99999.000 22.826   
 418.600  3.951    -99999.000 22.330   
 418.800  4.036    -99999.000 21.834   
 419.000  4.121    -99999.000 21.536   
 419.200  4.096    -99999.000 21.908   
 419.400  3.963    -99999.000 22.280   
 419.600  3.882    -99999.000 21.993   
 419.800  3.968    -99999.000 21.426   
 420.000  4.056    -99999.000 21.528   
 420.200  4.112    -99999.000 22.322   
 420.400  3.973    -99999.000 22.038   
 420.600  3.834    -99999.000 21.652   
 420.800  3.696    -99999.000 21.348   
 421.000  3.557    -99999.000 22.092   
 421.200  3.528    -99999.000 22.835   
 421.400  3.660    -99999.000 23.579   
 421.600  3.646    -99999.000 24.323   
 421.800  3.493    -99999.000 25.026   
 422.000  3.340    -99999.000 23.724   
 422.200  3.199    -99999.000 22.423   
 422.400  3.382    -99999.000 21.927   
 422.600  3.565    -99999.000 22.258   
 422.800  3.747    -99999.000 22.589   
 423.000  3.930    -99999.000 22.468   
 423.200  4.113    -99999.000 22.107   
 423.400  4.296    -99999.000 21.747   
 423.600  4.478    -99999.000 21.587   
 423.800  4.661    -99999.000 22.346   
 424.000  4.844    -99999.000 23.104   
 424.200  5.027    -99999.000 23.863   
 424.400  4.891    -99999.000 24.621   
 424.600  4.883    -99999.000 25.380   
 424.800  5.150    -99999.000 24.313   
 425.000  5.417    -99999.000 23.361   
 425.200  5.684    -99999.000 24.162   
 425.400  5.850    -99999.000 24.963   
 425.600  5.711    -99999.000 25.764   
 425.800  5.824    -99999.000 26.392   
 426.000  6.014    -99999.000 25.855   
 426.200  5.931    -99999.000 25.317   
 426.400  7.128    -99999.000 24.780   
 426.600  8.325    -99999.000 25.073   
 426.800  9.522    -99999.000 26.974   
 427.000  10.720   -99999.000 28.876   
 427.200  11.917   -99999.000 30.777   
 427.400  13.114   -99999.000 32.678   
 427.600  14.311   -99999.000 34.579   
 427.800  15.508   -99999.000 36.480   
 428.000  8.156    -99999.000 38.381   
 428.200  6.112    -99999.000 35.645   
 428.400  6.964    -99999.000 31.471   
 428.600  7.817    -99999.000 27.297   
 428.800  8.124    -99999.000 23.123   
 429.000  7.106    -99999.000 24.660   
 429.200  6.088    -99999.000 26.346   
 429.400  5.069    -99999.000 28.032   
 429.600  5.258    -99999.000 27.084   
 429.800  5.905    -99999.000 25.547   
 430.000  6.553    -99999.000 24.009   
 430.200  7.201    -99999.000 24.320   
 430.400  7.848    -99999.000 25.582   
 430.600  7.226    -99999.000 26.844   
 430.800  6.589    -99999.000 28.107   
 431.000  5.952    -99999.000 29.369   
 431.200  5.315    -99999.000 30.631   
 431.400  6.389    -99999.000 31.894   
 431.600  8.768    -99999.000 30.307   
 431.800  8.774    -99999.000 29.359   
 432.000  7.625    -99999.000 30.576   
 432.200  6.477    -99999.000 31.794   
 432.400  5.329    -99999.000 33.011   
 432.600  7.221    -99999.000 28.949   
 432.800  9.512    -99999.000 24.769   
 433.000  11.804   -99999.000 26.145   
 433.200  14.095   -99999.000 29.199   
 433.400  16.387   -99999.000 32.253   
 433.600  16.546   -99999.000 35.307   
 433.800  14.705   -99999.000 38.361   
 434.000  12.863   -99999.000 41.414   
 434.200  11.022   -99999.000 39.471   
 434.400  9.180    -99999.000 36.029   
 434.600  7.339    -99999.000 32.586   
 434.800  5.498    -99999.000 29.144   
 435.000  3.656    -99999.000 25.702   
 435.200  3.141    -99999.000 24.042   
 435.400  5.628    -99999.000 25.034   
 435.600  8.116    -99999.000 24.935   
 435.800  10.603   -99999.000 23.777   
 436.000  13.091   -99999.000 24.425   
 436.200  15.578   -99999.000 26.210   
 436.400  18.066   -99999.000 27.995   
 436.600  16.169   -99999.000 29.781   
 436.800  12.546   -99999.000 31.566   
 437.000  13.022   -99999.000 28.884   
 437.200  14.102   -99999.000 30.242   
 437.400  15.183   -99999.000 31.951   
 437.600  14.438   -99999.000 33.659   
 437.800  9.838    -99999.000 35.367   
 438.000  10.769   -99999.000 37.075   
 438.200  11.700   -99999.000 37.197   
 438.400  12.631   -99999.000 32.486   
 438.600  13.562   -99999.000 34.547   
 438.800  14.493   -99999.000 36.716   
 439.000  15.424   -99999.000 38.720   
 439.200  16.355   -99999.000 40.526   
 439.400  17.286   -99999.000 42.333   
 439.600  17.941   -99999.000 44.139   
 439.800  15.845   -99999.000 45.778   
 440.000  11.201   -99999.000 43.199   
 440.200  11.697   -99999.000 40.621   
 440.400  12.193   -99999.000 38.042   
 440.600  12.688   -99999.000 35.463   
 440.800  13.184   -99999.000 34.114   
 441.000  13.680   -99999.000 35.602   
 441.200  13.760   -99999.000 37.089   
 441.400  13.592   -99999.000 38.577   
 441.600  13.423   -99999.000 40.065   
 441.800  14.507   -99999.000 41.553   
 442.000  17.018   -99999.000 41.697   
 442.200  17.958   -99999.000 41.015   
 442.400  18.078   -99999.000 40.505   
 442.600  16.947   -99999.000 41.662   
 442.800  15.124   -99999.000 42.819   
 443.000  13.300   -99999.000 43.976   
 443.200  13.217   -99999.000 36.014   
 443.400  14.737   -99999.000 37.539   
 443.600  16.257   -99999.000 39.398   
 443.800  17.777   -99999.000 41.258   
 444.000  16.444   -99999.000 42.099   
 444.200  14.065   -99999.000 38.876   
 444.400  12.247   -99999.000 35.652   
 444.600  12.594   -99999.000 35.272   
 444.800  12.014   -99999.000 36.264   
 445.000  11.108   -99999.000 36.813   
 445.200  9.991    -99999.000 34.830   
 445.400  8.780    -99999.000 32.846   
 445.600  10.372   -99999.000 30.862   
 445.800  12.291   -99999.000 31.164   
