~VERSION INFORMATION
 VERS.                          2.0 :CWLS LOG ASCII STANDARD [logix (c) Softland]
 WRAP.                          NO  : ONE LINE PER DEPTH STEP
~WELL INFORMATION
#MNEM.UNIT           DATA                         :DESCRIPTION
#----.----           ----------                      ----------------
 STRT.M  246.000                                  :START DEPTH
 STOP.M  870.000                                  :STOP  DEPTH
 STEP.M 0.200                                     :STEP
 NULL.  -99999.000                                :NULL VALUE
 ALT.M    0.000                                    :KB or GL
 COMP.  Нефтяная компания                          :OIL COMPANY
 WELL.  17                                         :WELL
 FLD .  первое                                     :FIELD
 LOC .                                             :LOCATION
 CTRY.                                             :COUNTRY
 SRVC.                                             :SERVICE COMPANY
 DATE.  15-02-1971                                 :DATE
 API .                                             :API NUMBER
 UWI .                                             :UNIVERSAL WELL INDEX
~Curve Information Section
#MNEM.UNIT           API CODE                       Curve Description
#----.----           ----------                      ----------------
 DEPT.M                       :
 PZ.OHMM                      :
 GZ6.OHMM                     :
 PS.MV                        :
~A DEPT PZ GZ6.OHMM PS
# ...
 286.000  3.161    -99999.000 37.502   
 286.200  3.130    -99999.000 36.882   
 286.400  3.076    -99999.000 34.615   
 286.600  3.067    -99999.000 33.312   
 286.800  3.130    -99999.000 34.214   
 287.000  3.130    -99999.000 35.115   
 287.200  3.111    -99999.000 36.017   
 287.400  3.130    -99999.000 33.284   
 287.600  3.067    -99999.000 33.484   
 287.800  3.067    -99999.000 34.166   
 288.000  3.099    -99999.000 34.248   
 288.200  3.130    -99999.000 33.256   
 288.400  3.130    -99999.000 33.159   
 288.600  3.130    -99999.000 34.096   
 288.800  3.184    -99999.000 35.032   
 289.000  3.192    -99999.000 34.650   
 289.200  3.222    -99999.000 33.468   
 289.400  3.067    -99999.000 32.285   
 289.600  2.929    -99999.000 31.102   
 289.800  2.848    -99999.000 29.916   
 290.000  2.700    -99999.000 28.726   
 290.200  2.598    -99999.000 27.535   
 290.400  2.596    -99999.000 26.810   
 290.600  2.535    -99999.000 26.909   
 290.800  2.567    -99999.000 27.009   
 291.000  2.567    -99999.000 26.972   
 291.200  2.481    -99999.000 26.406   
 291.400  2.473    -99999.000 25.839   
 291.600  2.473    -99999.000 26.328   
 291.800  2.511    -99999.000 26.721   
 292.000  2.567    -99999.000 26.175   
 292.200  2.567    -99999.000 25.630   
 292.400  2.535    -99999.000 25.084   
 292.600  2.475    -99999.000 25.219   
 292.800  2.473    -99999.000 25.396   
 293.000  2.441    -99999.000 25.573   
 293.200  2.441    -99999.000 25.750   
 293.400  2.473    -99999.000 25.650   
 293.600  2.473    -99999.000 25.296   
 293.800  2.504    -99999.000 24.942   
 294.000  2.506    -99999.000 24.588   
 294.200  2.535    -99999.000 24.294   
 294.400  2.535    -99999.000 24.542   
 294.600  2.535    -99999.000 24.790   
 294.800  2.512    -99999.000 25.038   
 295.000  2.504    -99999.000 25.054   
 295.200  2.441    -99999.000 24.558   
 295.400  2.441    -99999.000 24.591   
 295.600  2.428    -99999.000 24.817   
 295.800  2.410    -99999.000 25.042   
 296.000  2.496    -99999.000 25.198   
 296.200  2.564    -99999.000 25.155   
 296.400  2.660    -99999.000 25.113   
 296.600  2.629    -99999.000 25.070   
 296.800  2.616    -99999.000 25.028   
 297.000  2.535    -99999.000 24.985   
 297.200  2.535    -99999.000 24.943   
 297.400  2.473    -99999.000 24.900   
 297.600  2.473    -99999.000 24.858   
 297.800  2.504    -99999.000 24.815   
 298.000  2.504    -99999.000 24.773   
 298.200  2.504    -99999.000 24.513   
 298.400  2.504    -99999.000 23.438   
 298.600  2.441    -99999.000 22.897   
 298.800  2.439    -99999.000 23.507   
 299.000  2.379    -99999.000 24.117   
 299.200  2.379    -99999.000 24.728   
 299.400  2.410    -99999.000 25.209   
 299.600  2.434    -99999.000 25.209   
 299.800  2.501    -99999.000 25.209   
 300.000  2.595    -99999.000 25.804   
 300.200  2.496    -99999.000 26.672   
 300.400  2.441    -99999.000 27.202   
 300.600  2.491    -99999.000 25.962   
 300.800  2.535    -99999.000 25.398   
 301.000  2.506    -99999.000 26.700   
 301.200  2.473    -99999.000 28.002   
 301.400  2.512    -99999.000 29.304   
 301.600  2.535    -99999.000 30.606   
 301.800  2.567    -99999.000 31.628   
 302.000  2.567    -99999.000 31.628   
 302.200  2.721    -99999.000 31.628   
 302.400  2.786    -99999.000 33.872   
 302.600  2.786    -99999.000 37.131   
 302.800  2.660    -99999.000 37.704   
 303.000  2.517    -99999.000 35.348   
 303.200  2.418    -99999.000 32.993   
 303.400  2.347    -99999.000 35.637   
 303.600  2.382    -99999.000 38.332   
 303.800  2.441    -99999.000 37.688   
 304.000  2.428    -99999.000 35.853   
 304.200  2.379    -99999.000 34.018   
 304.400  2.292    -99999.000 32.183   
 304.600  2.285    -99999.000 33.044   
 304.800  2.441    -99999.000 34.036   
 305.000  2.410    -99999.000 35.028   
 305.200  2.365    -99999.000 33.537   
 305.400  2.316    -99999.000 31.411   
 305.600  2.292    -99999.000 31.017   
 305.800  2.377    -99999.000 31.844   
 306.000  2.538    -99999.000 31.343   
 306.200  2.637    -99999.000 30.964   
 306.400  2.736    -99999.000 36.144   
 306.600  2.867    -99999.000 41.323   
 306.800  2.973    -99999.000 44.516   
 307.000  2.973    -99999.000 42.390   
 307.200  2.942    -99999.000 40.265   
 307.400  2.942    -99999.000 38.140   
 307.600  2.973    -99999.000 36.014   
 307.800  2.973    -99999.000 33.889   
 308.000  3.005    -99999.000 31.763   
 308.200  2.944    -99999.000 30.967   
 308.400  2.879    -99999.000 30.912   
 308.600  2.879    -99999.000 30.857   
 308.800  2.879    -99999.000 30.647   
 309.000  2.942    -99999.000 30.532   
 309.200  2.942    -99999.000 30.532   
 309.400  2.973    -99999.000 30.778   
 309.600  2.911    -99999.000 31.159   
 309.800  2.902    -99999.000 31.541   
 310.000  2.848    -99999.000 31.922   
 310.200  2.848    -99999.000 31.778   
 310.400  2.879    -99999.000 31.183   
 310.600  2.879    -99999.000 32.067   
 310.800  2.786    -99999.000 33.014   
 311.000  2.746    -99999.000 33.961   
 311.200  2.660    -99999.000 34.983   
 311.400  2.641    -99999.000 36.085   
 311.600  2.653    -99999.000 37.188   
 311.800  2.846    -99999.000 38.290   
 312.000  2.942    -99999.000 39.392   
 312.200  2.951    -99999.000 40.494   
 312.400  3.005    -99999.000 35.560   
 312.600  2.973    -99999.000 36.166   
 312.800  3.060    -99999.000 36.773   
 313.000  3.161    -99999.000 35.636   
 313.200  3.290    -99999.000 34.432   
 313.400  3.443    -99999.000 35.425   
 313.600  3.429    -99999.000 37.142   
 313.800  3.412    -99999.000 38.858   
 314.000  3.293    -99999.000 40.575   
 314.200  3.163    -99999.000 39.466   
 314.400  3.064    -99999.000 39.065   
 314.600  3.201    -99999.000 39.623   
 314.800  3.363    -99999.000 39.489   
 315.000  3.505    -99999.000 36.088   
 315.200  3.512    -99999.000 32.688   
 315.400  3.413    -99999.000 34.003   
 315.600  3.380    -99999.000 35.491   
 315.800  3.255    -99999.000 36.979   
 316.000  3.161    -99999.000 37.450   
 316.200  3.079    -99999.000 36.872   
 316.400  2.980    -99999.000 37.358   
 316.600  3.003    -99999.000 38.563   
 316.800  3.161    -99999.000 36.867   
 317.000  3.170    -99999.000 33.624   
 317.200  3.224    -99999.000 34.244   
 317.400  3.224    -99999.000 34.863   
 317.600  3.192    -99999.000 33.278   
 317.800  3.222    -99999.000 34.128   
 318.000  3.286    -99999.000 34.978   
 318.200  3.318    -99999.000 35.829   
 318.400  3.272    -99999.000 36.679   
 318.600  3.192    -99999.000 35.940   
 318.800  3.192    -99999.000 35.333   
 319.000  3.192    -99999.000 35.697   
 319.200  3.415    -99999.000 36.060   
 319.400  3.514    -99999.000 36.424   
 319.600  3.631    -99999.000 36.788   
 319.800  3.713    -99999.000 36.463   
 320.000  3.843    -99999.000 35.570   
 320.200  3.975    -99999.000 34.677   
 320.400  3.971    -99999.000 34.535   
 320.600  3.984    -99999.000 35.563   
 320.800  3.742    -99999.000 36.590   
 321.000  3.587    -99999.000 37.617   
 321.200  3.293    -99999.000 38.644   
 321.400  2.912    -99999.000 34.547   
 321.600  2.688    -99999.000 30.297   
 321.800  2.495    -99999.000 29.468   
 322.000  2.364    -99999.000 29.716   
 322.200  2.222    -99999.000 29.592   
 322.400  2.278    -99999.000 28.257   
 322.600  2.377    -99999.000 26.922   
 322.800  2.410    -99999.000 25.587   
 323.000  2.401    -99999.000 24.410   
 323.200  2.347    -99999.000 24.286   
 323.400  2.367    -99999.000 24.113   
 323.600  2.379    -99999.000 24.569   
 323.800  2.285    -99999.000 24.582   
 324.000  2.218    -99999.000 24.269   
 324.200  2.169    -99999.000 23.734   
 324.400  2.270    -99999.000 23.800   
 324.600  2.430    -99999.000 23.956   
 324.800  2.441    -99999.000 23.956   
 325.000  2.349    -99999.000 24.113   
 325.200  2.187    -99999.000 23.956   
 325.400  1.994    -99999.000 23.956   
 325.600  1.895    -99999.000 23.956   
 325.800  1.878    -99999.000 23.956   
