~VERSION INFORMATION
 VERS.                          2.0 :CWLS LOG ASCII STANDARD [logix (c) Softland]
 WRAP.                          NO  : ONE LINE PER DEPTH STEP
~WELL INFORMATION
#MNEM.UNIT           DATA                         :DESCRIPTION
#----.----           ----------                      ----------------
 STRT.M  246.000                                  :START DEPTH
 STOP.M  870.000                                  :STOP  DEPTH
 STEP.M 0.200                                     :STEP
 NULL.  -99999.000                                :NULL VALUE
 ALT.M    0.000                                    :KB or GL
 COMP.  Нефтяная компания                          :OIL COMPANY
 WELL.  17                                         :WELL
 FLD .  первое                                     :FIELD
 LOC .                                             :LOCATION
 CTRY.                                             :COUNTRY
 SRVC.                                             :SERVICE COMPANY
 DATE.  15-02-1971                                 :DATE
 API .                                             :API NUMBER
 UWI .                                             :UNIVERSAL WELL INDEX
~Curve Information Section
#MNEM.UNIT           API CODE                       Curve Description
#----.----           ----------                      ----------------
 DEPT.M                       :
 PZ.OHMM                      :
 GZ6.OHMM                     :
 PS.MV                        :
~A DEPT PZ GZ6.OHMM PS
# ...
 366.000  2.316    -99999.000 24.330   
 366.200  2.316    -99999.000 24.426   
 366.400  2.347    -99999.000 24.695   
 366.600  2.294    -99999.000 24.582   
 366.800  2.316    -99999.000 24.582   
 367.000  2.347    -99999.000 24.582   
 367.200  2.379    -99999.000 24.522   
 367.400  2.421    -99999.000 24.339   
 367.600  2.441    -99999.000 23.843   
 367.800  2.420    -99999.000 23.504   
 368.000  2.352    -99999.000 23.017   
 368.200  2.221    -99999.000 22.668   
 368.400  2.066    -99999.000 22.547   
 368.600  2.054    -99999.000 22.234   
 368.800  2.003    -99999.000 22.234   
 369.000  2.088    -99999.000 22.077   
 369.200  2.128    -99999.000 22.077   
 369.400  2.160    -99999.000 22.077   
 369.600  2.222    -99999.000 22.077   
 369.800  2.254    -99999.000 22.234   
 370.000  2.191    -99999.000 22.234   
 370.200  2.213    -99999.000 22.234   
 370.400  2.249    -99999.000 22.390   
 370.600  2.441    -99999.000 22.390   
 370.800  2.372    -99999.000 22.704   
 371.000  2.285    -99999.000 22.792   
 371.200  2.222    -99999.000 22.860   
 371.400  2.275    -99999.000 22.860   
 371.600  2.347    -99999.000 23.017   
 371.800  2.252    -99999.000 23.017   
 372.000  2.097    -99999.000 23.080   
 372.200  2.109    -99999.000 23.173   
 372.400  2.128    -99999.000 23.173   
 372.600  2.222    -99999.000 23.031   
 372.800  2.343    -99999.000 23.017   
 373.000  2.505    -99999.000 22.704   
 373.200  2.660    -99999.000 22.547   
 373.400  2.754    -99999.000 22.300   
 373.600  2.754    -99999.000 22.234   
 373.800  2.701    -99999.000 21.935   
 374.000  2.692    -99999.000 21.764   
 374.200  2.629    -99999.000 21.608   
 374.400  2.629    -99999.000 21.608   
 374.600  2.629    -99999.000 21.451   
 374.800  2.598    -99999.000 21.451   
 375.000  2.660    -99999.000 21.451   
 375.200  2.750    -99999.000 21.464   
 375.400  2.817    -99999.000 21.451   
 375.600  2.848    -99999.000 21.608   
 375.800  2.848    -99999.000 21.699   
 376.000  2.848    -99999.000 22.077   
 376.200  2.848    -99999.000 22.221   
 376.400  2.907    -99999.000 22.404   
 376.600  2.911    -99999.000 22.704   
 376.800  2.904    -99999.000 22.704   
 377.000  2.911    -99999.000 22.704   
 377.200  2.848    -99999.000 22.704   
 377.400  2.848    -99999.000 22.704   
 377.600  2.879    -99999.000 22.704   
 377.800  2.911    -99999.000 22.704   
 378.000  2.911    -99999.000 22.926   
 378.200  2.911    -99999.000 23.017   
 378.400  2.879    -99999.000 23.330   
 378.600  2.902    -99999.000 23.330   
 378.800  2.911    -99999.000 23.159   
 379.000  2.879    -99999.000 22.860   
 379.200  2.817    -99999.000 22.793   
 379.400  2.817    -99999.000 22.860   
 379.600  2.786    -99999.000 23.136   
 379.800  2.786    -99999.000 23.632   
 380.000  2.844    -99999.000 24.739   
 380.200  2.911    -99999.000 25.093   
 380.400  2.918    -99999.000 25.209   
 380.600  2.973    -99999.000 25.052   
 380.800  2.942    -99999.000 24.932   
 381.000  2.879    -99999.000 24.739   
 381.200  2.848    -99999.000 24.911   
 381.400  2.912    -99999.000 25.052   
 381.600  2.949    -99999.000 24.739   
 381.800  3.055    -99999.000 24.488   
 382.000  3.067    -99999.000 24.113   
 382.200  3.005    -99999.000 23.800   
 382.400  2.946    -99999.000 24.269   
 382.600  2.912    -99999.000 24.312   
 382.800  2.973    -99999.000 24.808   
 383.000  3.067    -99999.000 24.990   
 383.200  3.067    -99999.000 24.896   
 383.400  3.059    -99999.000 24.435   
 383.600  2.817    -99999.000 23.643   
 383.800  3.419    -99999.000 23.287   
 384.000  4.879    -99999.000 23.017   
 384.200  6.339    -99999.000 22.390   
 384.400  7.296    -99999.000 22.825   
 384.600  5.889    -99999.000 23.017   
 384.800  4.481    -99999.000 22.999   
 385.000  3.100    -99999.000 22.547   
 385.200  3.174    -99999.000 22.860   
 385.400  3.249    -99999.000 22.547   
 385.600  3.018    -99999.000 22.669   
 385.800  4.971    -99999.000 22.868   
 386.000  6.574    -99999.000 22.878   
 386.200  6.663    -99999.000 22.860   
 386.400  7.588    -99999.000 22.547   
 386.600  7.272    -99999.000 22.704   
 386.800  5.375    -99999.000 22.704   
 387.000  3.971    -99999.000 22.704   
 387.200  4.229    -99999.000 22.704   
 387.400  4.239    -99999.000 22.704   
 387.600  4.220    -99999.000 22.547   
 387.800  4.369    -99999.000 22.644   
 388.000  4.518    -99999.000 22.860   
 388.200  4.666    -99999.000 23.486   
 388.400  4.471    -99999.000 23.486   
 388.600  4.046    -99999.000 23.643   
 388.800  3.620    -99999.000 24.028   
 389.000  3.195    -99999.000 24.582   
 389.200  2.769    -99999.000 24.458   
 389.400  2.492    -99999.000 23.956   
 389.600  2.710    -99999.000 22.840   
 389.800  2.734    -99999.000 22.344   
 390.000  2.655    -99999.000 21.764   
 390.200  2.575    -99999.000 21.352   
 390.400  2.598    -99999.000 21.294   
 390.600  2.726    -99999.000 21.294   
 390.800  2.766    -99999.000 21.471   
 391.000  2.588    -99999.000 22.124   
 391.200  2.689    -99999.000 22.161   
 391.400  2.907    -99999.000 21.863   
 391.600  3.125    -99999.000 21.921   
 391.800  3.343    -99999.000 22.229   
 392.000  3.561    -99999.000 23.017   
 392.200  3.417    -99999.000 23.017   
 392.400  3.261    -99999.000 23.173   
 392.600  3.399    -99999.000 23.173   
 392.800  3.630    -99999.000 23.017   
 393.000  3.728    -99999.000 22.547   
 393.200  3.475    -99999.000 22.390   
 393.400  3.222    -99999.000 22.390   
 393.600  3.112    -99999.000 22.547   
 393.800  3.228    -99999.000 22.547   
 394.000  3.188    -99999.000 22.390   
 394.200  2.990    -99999.000 21.921   
 394.400  3.106    -99999.000 21.921   
 394.600  3.430    -99999.000 21.764   
 394.800  3.755    -99999.000 21.764   
 395.000  4.028    -99999.000 22.077   
 395.200  3.954    -99999.000 22.204   
 395.400  3.879    -99999.000 22.234   
 395.600  4.059    -99999.000 22.077   
 395.800  4.174    -99999.000 22.234   
 396.000  3.839    -99999.000 22.077   
 396.200  3.503    -99999.000 22.179   
 396.400  3.168    -99999.000 22.390   
 396.600  2.987    -99999.000 22.390   
 396.800  3.314    -99999.000 22.390   
 397.000  3.640    -99999.000 22.077   
 397.200  3.967    -99999.000 22.077   
 397.400  4.293    -99999.000 22.234   
 397.600  4.620    -99999.000 21.921   
 397.800  4.435    -99999.000 21.921   
 398.000  4.170    -99999.000 22.547   
 398.200  4.428    -99999.000 22.547   
 398.400  4.700    -99999.000 22.860   
 398.600  4.741    -99999.000 22.860   
 398.800  4.493    -99999.000 23.017   
 399.000  4.245    -99999.000 23.173   
 399.200  4.460    -99999.000 23.355   
 399.400  4.715    -99999.000 23.486   
 399.600  4.598    -99999.000 23.564   
 399.800  4.329    -99999.000 23.486   
 400.000  4.516    -99999.000 23.303   
 400.200  5.160    -99999.000 23.486   
 400.400  6.332    -99999.000 22.991   
 400.600  7.125    -99999.000 22.809   
 400.800  7.819    -99999.000 22.390   
 401.000  7.342    -99999.000 22.547   
 401.200  6.866    -99999.000 22.547   
 401.400  6.389    -99999.000 22.860   
 401.600  5.912    -99999.000 22.860   
 401.800  5.436    -99999.000 22.704   
 402.000  4.959    -99999.000 22.390   
 402.200  4.483    -99999.000 22.390   
 402.400  4.006    -99999.000 22.834   
 402.600  4.245    -99999.000 23.173   
 402.800  4.082    -99999.000 22.834   
 403.000  3.782    -99999.000 22.704   
 403.200  3.617    -99999.000 22.704   
 403.400  3.845    -99999.000 22.860   
 403.600  4.072    -99999.000 22.860   
 403.800  4.300    -99999.000 23.017   
 404.000  4.527    -99999.000 22.860   
 404.200  4.754    -99999.000 22.234   
 404.400  4.552    -99999.000 22.234   
 404.600  4.175    -99999.000 22.340   
 404.800  3.799    -99999.000 22.572   
 405.000  3.670    -99999.000 22.704   
 405.200  3.741    -99999.000 22.547   
 405.400  3.662    -99999.000 22.650   
 405.600  3.470    -99999.000 22.390   
 405.800  3.540    -99999.000 22.128   
