~VERSION INFORMATION
 VERS.                          2.0 :CWLS LOG ASCII STANDARD [logix (c) Softland]
 WRAP.                          NO  : ONE LINE PER DEPTH STEP
~WELL INFORMATION
#MNEM.UNIT           DATA                         :DESCRIPTION
#----.----           ----------                      ----------------
 STRT.M  246.000                                  :START DEPTH
 STOP.M  870.000                                  :STOP  DEPTH
 STEP.M 0.200                                     :STEP
 NULL.  -99999.000                                :NULL VALUE
 ALT.M    0.000                                    :KB or GL
 COMP.  Нефтяная компания                          :OIL COMPANY
 WELL.  17                                         :WELL
 FLD .  первое                                     :FIELD
 LOC .                                             :LOCATION
 CTRY.                                             :COUNTRY
 SRVC.                                             :SERVICE COMPANY
 DATE.  15-02-1971                                 :DATE
 API .                                             :API NUMBER
 UWI .                                             :UNIVERSAL WELL INDEX
~Curve Information Section
#MNEM.UNIT           API CODE                       Curve Description
#----.----           ----------                      ----------------
 DEPT.M                       :
 PZ.OHMM                      :
 GZ6.OHMM                     :
 PS.MV                        :
~A DEPT PZ GZ6.OHMM PS
# ...
 446.000  14.210   -99999.000 32.561   
 446.200  9.068    -99999.000 33.959   
 446.400  9.475    -99999.000 34.600   
 446.600  9.882    -99999.000 32.270   
 446.800  10.289   -99999.000 29.939   
 447.000  10.696   -99999.000 27.752   
 447.200  11.103   -99999.000 28.578   
 447.400  10.704   -99999.000 29.405   
 447.600  8.901    -99999.000 29.595   
 447.800  7.099    -99999.000 27.301   
 448.000  5.297    -99999.000 25.007   
 448.200  6.523    -99999.000 25.379   
 448.400  8.116    -99999.000 27.016   
 448.600  9.710    -99999.000 28.652   
 448.800  11.304   -99999.000 29.326   
 449.000  12.897   -99999.000 29.113   
 449.200  14.491   -99999.000 29.849   
 449.400  16.084   -99999.000 32.687   
 449.600  17.678   -99999.000 35.524   
 449.800  17.734   -99999.000 38.362   
 450.000  17.073   -99999.000 41.200   
 450.200  16.412   -99999.000 44.038   
 450.400  16.515   -99999.000 40.813   
 450.600  16.763   -99999.000 36.731   
 450.800  13.329   -99999.000 37.413   
 451.000  9.683    -99999.000 38.095   
 451.200  6.447    -99999.000 35.292   
 451.400  6.557    -99999.000 31.820   
 451.600  8.038    -99999.000 31.661   
 451.800  9.817    -99999.000 33.456   
 452.000  11.597   -99999.000 35.251   
 452.200  13.376   -99999.000 37.046   
 452.400  15.156   -99999.000 38.840   
 452.600  16.935   -99999.000 40.635   
 452.800  18.327   -99999.000 42.430   
 453.000  18.261   -99999.000 41.442   
 453.200  18.278   -99999.000 42.229   
 453.400  18.477   -99999.000 43.655   
 453.600  18.545   -99999.000 44.325   
 453.800  17.501   -99999.000 42.155   
 454.000  16.457   -99999.000 39.986   
 454.200  15.413   -99999.000 40.380   
 454.400  14.370   -99999.000 41.958   
 454.600  13.326   -99999.000 43.536   
 454.800  13.219   -99999.000 44.126   
 455.000  13.445   -99999.000 41.026   
 455.200  12.271   -99999.000 37.927   
 455.400  9.838    -99999.000 37.249   
 455.600  7.404    -99999.000 37.683   
 455.800  5.193    -99999.000 35.804   
 456.000  6.903    -99999.000 25.118   
 456.200  8.613    -99999.000 26.904   
 456.400  10.323   -99999.000 28.689   
 456.600  11.531   -99999.000 30.474   
 456.800  11.344   -99999.000 32.260   
 457.000  11.157   -99999.000 34.045   
 457.200  11.166   -99999.000 35.830   
 457.400  11.443   -99999.000 35.369   
 457.600  11.721   -99999.000 34.653   
 457.800  11.452   -99999.000 34.089   
 458.000  9.672    -99999.000 36.073   
 458.200  9.771    -99999.000 35.006   
 458.400  9.450    -99999.000 34.441   
 458.600  8.558    -99999.000 35.019   
 458.800  9.345    -99999.000 34.599   
 459.000  10.441   -99999.000 33.607   
 459.200  11.537   -99999.000 33.749   
 459.400  12.634   -99999.000 35.417   
 459.600  13.730   -99999.000 37.085   
 459.800  14.816   -99999.000 38.753   
 460.000  15.891   -99999.000 40.421   
 460.200  16.966   -99999.000 42.089   
 460.400  18.041   -99999.000 43.757   
 460.600  18.634   -99999.000 42.957   
 460.800  18.470   -99999.000 40.477   
 461.000  18.787   -99999.000 41.568   
 461.200  16.618   -99999.000 40.354   
 461.400  12.244   -99999.000 37.836   
 461.600  7.893    -99999.000 35.319   
 461.800  9.420    -99999.000 32.801   
 462.000  10.946   -99999.000 32.451   
 462.200  12.473   -99999.000 33.991   
 462.400  13.999   -99999.000 35.531   
 462.600  15.526   -99999.000 37.071   
 462.800  17.052   -99999.000 38.611   
 463.000  17.459   -99999.000 40.151   
 463.200  17.360   -99999.000 40.504   
 463.400  17.470   -99999.000 39.828   
 463.600  17.807   -99999.000 39.152   
 463.800  18.144   -99999.000 38.591   
 464.000  18.182   -99999.000 39.769   
 464.200  17.587   -99999.000 40.947   
 464.400  16.992   -99999.000 42.125   
 464.600  17.013   -99999.000 43.303   
 464.800  17.194   -99999.000 44.436   
 465.000  17.374   -99999.000 41.522   
 465.200  16.416   -99999.000 38.609   
 465.400  13.057   -99999.000 35.695   
 465.600  9.698    -99999.000 32.782   
 465.800  8.040    -99999.000 29.868   
 466.000  8.229    -99999.000 30.344   
 466.200  8.417    -99999.000 30.964   
 466.400  8.461    -99999.000 31.067   
 466.600  8.202    -99999.000 30.495   
 466.800  7.943    -99999.000 29.923   
 467.000  7.683    -99999.000 29.351   
 467.200  7.861    -99999.000 29.449   
 467.400  9.612    -99999.000 30.914   
 467.600  11.363   -99999.000 32.379   
 467.800  13.114   -99999.000 33.844   
 468.000  14.865   -99999.000 35.310   
 468.200  16.617   -99999.000 36.775   
 468.400  15.650   -99999.000 38.240   
 468.600  12.309   -99999.000 37.461   
 468.800  10.143   -99999.000 33.069   
 469.000  10.860   -99999.000 29.688   
 469.200  11.372   -99999.000 31.145   
 469.400  11.573   -99999.000 32.602   
 469.600  10.201   -99999.000 34.059   
 469.800  9.330    -99999.000 35.516   
 470.000  9.800    -99999.000 35.912   
 470.200  10.271   -99999.000 30.157   
 470.400  10.742   -99999.000 31.595   
 470.600  10.381   -99999.000 33.033   
 470.800  9.125    -99999.000 34.478   
 471.000  7.870    -99999.000 36.338   
 471.200  6.614    -99999.000 33.222   
 471.400  7.102    -99999.000 28.483   
 471.600  8.362    -99999.000 23.744   
 471.800  9.622    -99999.000 25.514   
 472.000  10.883   -99999.000 27.907   
 472.200  11.759   -99999.000 30.301   
 472.400  11.611   -99999.000 32.694   
 472.600  12.214   -99999.000 35.087   
 472.800  14.056   -99999.000 37.481   
 473.000  15.898   -99999.000 39.874   
 473.200  17.740   -99999.000 40.610   
 473.400  18.428   -99999.000 40.458   
 473.600  18.313   -99999.000 40.305   
 473.800  18.610   -99999.000 40.153   
 474.000  18.309   -99999.000 40.277   
 474.200  17.804   -99999.000 40.631   
 474.400  17.299   -99999.000 40.755   
 474.600  17.044   -99999.000 40.425   
 474.800  17.452   -99999.000 40.094   
 475.000  17.859   -99999.000 40.264   
 475.200  18.267   -99999.000 40.946   
 475.400  18.674   -99999.000 41.628   
 475.600  19.082   -99999.000 40.412   
 475.800  19.247   -99999.000 41.125   
 476.000  19.243   -99999.000 41.838   
 476.200  19.240   -99999.000 42.551   
 476.400  19.236   -99999.000 43.264   
 476.600  19.233   -99999.000 43.977   
 476.800  19.229   -99999.000 42.929   
 477.000  19.226   -99999.000 41.827   
 477.200  19.222   -99999.000 40.944   
 477.400  19.219   -99999.000 41.546   
 477.600  19.215   -99999.000 42.148   
 477.800  19.212   -99999.000 42.750   
 478.000  19.209   -99999.000 43.353   
 478.200  19.205   -99999.000 42.976   
 478.400  19.202   -99999.000 42.197   
 478.600  19.198   -99999.000 42.265   
 478.800  19.195   -99999.000 43.186   
 479.000  19.191   -99999.000 44.107   
 479.200  19.188   -99999.000 45.028   
 479.400  19.186   -99999.000 44.673   
 479.600  17.241   -99999.000 31.218   
 479.800  11.321   -99999.000 30.474   
 480.000  6.300    -99999.000 29.730   
 480.200  7.960    -99999.000 28.986   
 480.400  9.621    -99999.000 30.971   
 480.600  11.281   -99999.000 33.029   
 480.800  12.941   -99999.000 35.087   
 481.000  14.393   -99999.000 37.145   
 481.200  12.906   -99999.000 39.203   
 481.400  11.751   -99999.000 41.261   
 481.600  11.769   -99999.000 39.728   
 481.800  12.962   -99999.000 36.339   
 482.000  14.310   -99999.000 37.250   
 482.200  15.658   -99999.000 39.482   
 482.400  15.541   -99999.000 41.713   
 482.600  6.306    -99999.000 43.945   
 482.800  4.744    -99999.000 20.205   
 483.000  5.275    -99999.000 22.822   
 483.200  6.305    -99999.000 25.440   
 483.400  7.334    -99999.000 28.057   
 483.600  8.364    -99999.000 30.675   
 483.800  9.394    -99999.000 33.292   
 484.000  10.424   -99999.000 32.284   
 484.200  10.212   -99999.000 31.193   
 484.400  9.877    -99999.000 30.102   
 484.600  9.760    -99999.000 31.262   
 484.800  9.991    -99999.000 32.915   
 485.000  10.223   -99999.000 34.568   
 485.200  10.174   -99999.000 36.221   
 485.400  9.889    -99999.000 37.630   
 485.600  9.612    -99999.000 36.390   
 485.800  9.844    -99999.000 35.603   
