~VERSION INFORMATION
 VERS.                          2.0 :CWLS LOG ASCII STANDARD [logix (c) Softland]
 WRAP.                          NO  : ONE LINE PER DEPTH STEP
~WELL INFORMATION
#MNEM.UNIT           DATA                         :DESCRIPTION
#----.----           ----------                      ----------------
 STRT.M  246.000                                  :START DEPTH
 STOP.M  870.000                                  :STOP  DEPTH
 STEP.M 0.200                                     :STEP
 NULL.  -99999.000                                :NULL VALUE
 ALT.M    0.000                                    :KB or GL
 COMP.  Нефтяная компания                          :OIL COMPANY
 WELL.  17                                         :WELL
 FLD .  первое                                     :FIELD
 LOC .                                             :LOCATION
 CTRY.                                             :COUNTRY
 SRVC.                                             :SERVICE COMPANY
 DATE.  15-02-1971                                 :DATE
 API .                                             :API NUMBER
 UWI .                                             :UNIVERSAL WELL INDEX
~Curve Information Section
#MNEM.UNIT           API CODE                       Curve Description
#----.----           ----------                      ----------------
 DEPT.M                       :
 PZ.OHMM                      :
 GZ6.OHMM                     :
 PS.MV                        :
~A DEPT PZ GZ6.OHMM PS
# ...
 646.000  16.222   -99999.000 31.425   
 646.200  16.187   -99999.000 34.287   
 646.400  15.317   -99999.000 33.729   
 646.600  14.446   -99999.000 31.037   
 646.800  13.575   -99999.000 30.148   
 647.000  13.118   -99999.000 31.903   
 647.200  13.869   -99999.000 33.658   
 647.400  14.619   -99999.000 35.412   
 647.600  15.370   -99999.000 36.076   
 647.800  16.120   -99999.000 34.207   
 648.000  15.599   -99999.000 32.337   
 648.200  14.864   -99999.000 30.468   
 648.400  14.129   -99999.000 29.170   
 648.600  13.448   -99999.000 30.205   
 648.800  13.894   -99999.000 31.240   
 649.000  14.340   -99999.000 32.275   
 649.200  14.786   -99999.000 33.310   
 649.400  15.232   -99999.000 34.345   
 649.600  15.678   -99999.000 35.380   
 649.800  16.124   -99999.000 36.415   
 650.000  15.475   -99999.000 33.051   
 650.200  14.421   -99999.000 31.017   
 650.400  13.769   -99999.000 31.938   
 650.600  14.672   -99999.000 32.859   
 650.800  15.575   -99999.000 33.780   
 651.000  15.978   -99999.000 34.701   
 651.200  15.503   -99999.000 33.738   
 651.400  15.028   -99999.000 33.375   
 651.600  14.554   -99999.000 34.317   
 651.800  14.079   -99999.000 35.259   
 652.000  13.604   -99999.000 35.433   
 652.200  13.515   -99999.000 32.540   
 652.400  14.102   -99999.000 31.038   
 652.600  14.688   -99999.000 32.691   
 652.800  15.275   -99999.000 34.344   
 653.000  15.197   -99999.000 33.617   
 653.200  14.627   -99999.000 30.146   
 653.400  14.131   -99999.000 31.695   
 653.600  15.104   -99999.000 33.891   
 653.800  16.077   -99999.000 36.088   
 654.000  17.049   -99999.000 38.284   
 654.200  18.022   -99999.000 40.480   
 654.400  18.995   -99999.000 42.676   
 654.600  18.998   -99999.000 44.347   
 654.800  18.998   -99999.000 44.489   
 655.000  19.012   -99999.000 44.624   
 655.200  19.040   -99999.000 44.624   
 655.400  19.068   -99999.000 44.624   
 655.600  19.097   -99999.000 44.624   
 655.800  19.122   -99999.000 44.624   
 656.000  19.098   -99999.000 44.624   
 656.200  19.073   -99999.000 44.624   
 656.400  19.061   -99999.000 44.624   
 656.600  19.061   -99999.000 44.624   
 656.800  19.061   -99999.000 44.624   
 657.000  19.061   -99999.000 44.624   
 657.200  18.913   -99999.000 44.624   
 657.400  17.476   -99999.000 41.982   
 657.600  16.039   -99999.000 39.328   
 657.800  14.601   -99999.000 36.673   
 658.000  13.164   -99999.000 34.018   
 658.200  11.878   -99999.000 31.364   
 658.400  13.424   -99999.000 31.651   
 658.600  14.971   -99999.000 33.682   
 658.800  16.517   -99999.000 35.713   
 659.000  18.063   -99999.000 37.744   
 659.200  19.088   -99999.000 39.775   
 659.400  18.975   -99999.000 41.805   
 659.600  18.894   -99999.000 43.836   
 659.800  19.092   -99999.000 44.435   
 660.000  19.290   -99999.000 44.313   
 660.200  18.221   -99999.000 42.907   
 660.400  17.001   -99999.000 39.958   
 660.600  15.781   -99999.000 37.106   
 660.800  14.561   -99999.000 34.255   
 661.000  14.460   -99999.000 31.403   
 661.200  14.658   -99999.000 29.749   
 661.400  14.856   -99999.000 29.749   
 661.600  15.055   -99999.000 29.749   
 661.800  15.253   -99999.000 29.619   
 662.000  15.451   -99999.000 28.810   
 662.200  15.421   -99999.000 28.836   
 662.400  15.136   -99999.000 28.967   
 662.600  14.851   -99999.000 29.045   
 662.800  14.676   -99999.000 29.123   
 663.000  14.507   -99999.000 28.967   
 663.200  14.339   -99999.000 28.967   
 663.400  16.027   -99999.000 29.307   
 663.600  18.207   -99999.000 29.802   
 663.800  18.258   -99999.000 30.453   
 664.000  18.059   -99999.000 31.315   
 664.200  18.173   -99999.000 32.073   
 664.400  18.308   -99999.000 32.724   
 664.600  17.404   -99999.000 32.697   
 664.800  16.500   -99999.000 31.575   
 665.000  15.597   -99999.000 29.513   
 665.200  14.693   -99999.000 29.487   
 665.400  13.790   -99999.000 29.123   
 665.600  12.886   -99999.000 27.871   
 665.800  11.983   -99999.000 27.244   
 666.000  11.079   -99999.000 26.564   
 666.200  11.146   -99999.000 25.679   
 666.400  11.249   -99999.000 24.789   
 666.600  11.189   -99999.000 24.269   
 666.800  10.929   -99999.000 25.055   
 667.000  11.224   -99999.000 25.707   
 667.200  11.729   -99999.000 25.154   
 667.400  12.235   -99999.000 24.188   
 667.600  12.426   -99999.000 24.582   
 667.800  11.881   -99999.000 26.125   
 668.000  10.077   -99999.000 28.184   
 668.200  10.320   -99999.000 27.528   
 668.400  11.099   -99999.000 26.876   
 668.600  11.878   -99999.000 27.796   
 668.800  12.656   -99999.000 28.546   
 669.000  13.109   -99999.000 29.570   
 669.200  13.010   -99999.000 31.002   
 669.400  13.384   -99999.000 32.128   
 669.600  13.374   -99999.000 33.820   
 669.800  14.292   -99999.000 34.603   
 670.000  15.211   -99999.000 36.061   
 670.200  16.129   -99999.000 36.617   
 670.400  17.048   -99999.000 38.209   
 670.600  17.030   -99999.000 38.987   
 670.800  16.272   -99999.000 38.774   
 671.000  16.550   -99999.000 38.278   
 671.200  16.828   -99999.000 38.048   
 671.400  17.029   -99999.000 38.183   
 671.600  15.978   -99999.000 38.831   
 671.800  14.663   -99999.000 38.800   
 672.000  13.061   -99999.000 36.482   
 672.200  11.480   -99999.000 33.977   
 672.400  9.914    -99999.000 30.892   
 672.600  8.347    -99999.000 23.693   
 672.800  7.523    -99999.000 24.124   
 673.000  7.555    -99999.000 25.115   
 673.200  6.861    -99999.000 26.107   
 673.400  6.434    -99999.000 26.427   
 673.600  6.273    -99999.000 26.329   
 673.800  8.563    -99999.000 28.702   
 674.000  10.853   -99999.000 31.076   
 674.200  13.142   -99999.000 33.449   
 674.400  12.187   -99999.000 31.045   
 674.600  10.650   -99999.000 24.571   
 674.800  9.114    -99999.000 25.924   
 675.000  7.716    -99999.000 27.276   
 675.200  8.521    -99999.000 27.384   
 675.400  9.327    -99999.000 24.954   
 675.600  8.817    -99999.000 22.524   
 675.800  7.157    -99999.000 20.611   
 676.000  5.497    -99999.000 21.189   
 676.200  3.837    -99999.000 21.195   
 676.400  3.756    -99999.000 19.707   
 676.600  4.218    -99999.000 18.417   
 676.800  4.681    -99999.000 19.872   
 677.000  5.143    -99999.000 21.327   
 677.200  5.594    -99999.000 22.782   
 677.400  4.504    -99999.000 24.236   
 677.600  3.595    -99999.000 24.490   
 677.800  4.113    -99999.000 22.320   
 678.000  4.631    -99999.000 20.150   
 678.200  4.967    -99999.000 20.894   
 678.400  4.819    -99999.000 22.340   
 678.600  5.134    -99999.000 23.787   
 678.800  6.217    -99999.000 25.006   
 679.000  7.300    -99999.000 23.103   
 679.200  8.382    -99999.000 25.459   
 679.400  8.560    -99999.000 27.814   
 679.600  6.313    -99999.000 30.170   
 679.800  4.066    -99999.000 28.078   
 680.000  2.832    -99999.000 25.560   
 680.200  2.938    -99999.000 23.043   
 680.400  3.045    -99999.000 20.525   
 680.600  3.152    -99999.000 19.954   
 680.800  3.200    -99999.000 19.572   
 681.000  3.137    -99999.000 19.729   
 681.200  3.245    -99999.000 19.729   
 681.400  3.353    -99999.000 19.921   
 681.600  3.462    -99999.000 20.511   
 681.800  3.570    -99999.000 20.423   
 682.000  3.679    -99999.000 20.355   
 682.200  3.787    -99999.000 19.901   
 682.400  3.896    -99999.000 20.042   
 682.600  4.004    -99999.000 20.198   
 682.800  4.112    -99999.000 20.261   
 683.000  4.221    -99999.000 20.668   
 683.200  4.049    -99999.000 20.553   
 683.400  3.865    -99999.000 20.355   
 683.600  5.260    -99999.000 20.355   
 683.800  7.187    -99999.000 20.355   
 684.000  9.114    -99999.000 20.355   
 684.200  8.148    -99999.000 20.265   
 684.400  6.880    -99999.000 19.885   
 684.600  5.613    -99999.000 20.027   
 684.800  4.346    -99999.000 20.355   
 685.000  3.778    -99999.000 20.355   
 685.200  3.954    -99999.000 20.355   
 685.400  4.129    -99999.000 20.198   
 685.600  4.304    -99999.000 20.784   
 685.800  4.281    -99999.000 20.825   
