~VERSION INFORMATION
 VERS.                          2.0 :CWLS LOG ASCII STANDARD [logix (c) Softland]
 WRAP.                          NO  : ONE LINE PER DEPTH STEP
~WELL INFORMATION
#MNEM.UNIT           DATA                         :DESCRIPTION
#----.----           ----------                      ----------------
 STRT.M  246.000                                  :START DEPTH
 STOP.M  870.000                                  :STOP  DEPTH
 STEP.M 0.200                                     :STEP
 NULL.  -99999.000                                :NULL VALUE
 ALT.M    0.000                                    :KB or GL
 COMP.  Нефтяная компания                          :OIL COMPANY
 WELL.  17                                         :WELL
 FLD .  первое                                     :FIELD
 LOC .                                             :LOCATION
 CTRY.                                             :COUNTRY
 SRVC.                                             :SERVICE COMPANY
 DATE.  15-02-1971                                 :DATE
 API .                                             :API NUMBER
 UWI .                                             :UNIVERSAL WELL INDEX
~Curve Information Section
#MNEM.UNIT           API CODE                       Curve Description
#----.----           ----------                      ----------------
 DEPT.M                       :
 PZ.OHMM                      :
 GZ6.OHMM                     :
 PS.MV                        :
~A DEPT PZ GZ6.OHMM PS
# ...
 486.000  10.075   -99999.000 36.744   
 486.200  10.306   -99999.000 37.884   
 486.400  10.505   -99999.000 31.325   
 486.600  10.447   -99999.000 26.862   
 486.800  9.529    -99999.000 26.390   
 487.000  8.610    -99999.000 27.112   
 487.200  7.692    -99999.000 27.833   
 487.400  6.773    -99999.000 27.722   
 487.600  6.451    -99999.000 25.639   
 487.800  6.629    -99999.000 25.557   
 488.000  6.308    -99999.000 26.259   
 488.200  6.546    -99999.000 26.962   
 488.400  6.783    -99999.000 27.665   
 488.600  6.932    -99999.000 23.258   
 488.800  6.659    -99999.000 24.185   
 489.000  6.762    -99999.000 25.215   
 489.200  6.730    -99999.000 26.245   
 489.400  6.423    -99999.000 27.275   
 489.600  6.965    -99999.000 23.918   
 489.800  7.508    -99999.000 23.305   
 490.000  8.050    -99999.000 24.793   
 490.200  8.592    -99999.000 26.281   
 490.400  9.135    -99999.000 27.769   
 490.600  8.829    -99999.000 29.257   
 490.800  8.164    -99999.000 28.090   
 491.000  7.499    -99999.000 26.152   
 491.200  6.835    -99999.000 27.206   
 491.400  6.170    -99999.000 28.259   
 491.600  6.041    -99999.000 23.617   
 491.800  6.975    -99999.000 27.805   
 492.000  7.710    -99999.000 31.992   
 492.200  7.041    -99999.000 33.719   
 492.400  6.945    -99999.000 30.118   
 492.600  7.704    -99999.000 34.076   
 492.800  9.072    -99999.000 35.855   
 493.000  10.440   -99999.000 37.635   
 493.200  11.808   -99999.000 39.414   
 493.400  13.176   -99999.000 41.194   
 493.600  14.544   -99999.000 42.644   
 493.800  15.912   -99999.000 41.705   
 494.000  17.280   -99999.000 42.862   
 494.200  17.784   -99999.000 44.019   
 494.400  17.925   -99999.000 42.695   
 494.600  18.046   -99999.000 41.042   
 494.800  17.147   -99999.000 39.493   
 495.000  16.090   -99999.000 40.352   
 495.200  16.160   -99999.000 41.212   
 495.400  16.268   -99999.000 42.072   
 495.600  16.375   -99999.000 42.931   
 495.800  16.206   -99999.000 40.171   
 496.000  14.772   -99999.000 29.178   
 496.200  13.337   -99999.000 22.558   
 496.400  11.902   -99999.000 22.204   
 496.600  10.468   -99999.000 23.416   
 496.800  9.033    -99999.000 30.855   
 497.000  8.281    -99999.000 34.203   
 497.200  9.133    -99999.000 28.302   
 497.400  10.893   -99999.000 22.400   
 497.600  12.652   -99999.000 18.606   
 497.800  14.412   -99999.000 26.811   
 498.000  16.171   -99999.000 35.016   
 498.200  15.945   -99999.000 43.221   
 498.400  13.700   -99999.000 35.730   
 498.600  11.456   -99999.000 27.546   
 498.800  9.211    -99999.000 29.034   
 499.000  7.206    -99999.000 30.522   
 499.200  8.134    -99999.000 32.010   
 499.400  9.062    -99999.000 33.497   
 499.600  9.991    -99999.000 32.707   
 499.800  9.760    -99999.000 31.901   
 500.000  8.764    -99999.000 32.817   
 500.200  7.768    -99999.000 35.693   
 500.400  6.772    -99999.000 33.450   
 500.600  5.775    -99999.000 30.568   
 500.800  4.779    -99999.000 27.685   
 501.000  4.112    -99999.000 24.803   
 501.200  4.260    -99999.000 21.920   
 501.400  4.409    -99999.000 23.048   
 501.600  4.508    -99999.000 24.955   
 501.800  4.277    -99999.000 26.863   
 502.000  4.545    -99999.000 28.770   
 502.200  6.439    -99999.000 29.134   
 502.400  8.334    -99999.000 29.670   
 502.600  8.869    -99999.000 34.233   
 502.800  7.305    -99999.000 34.228   
 503.000  5.741    -99999.000 30.856   
 503.200  5.582    -99999.000 31.649   
 503.400  6.567    -99999.000 32.455   
 503.600  7.552    -99999.000 31.807   
 503.800  8.537    -99999.000 34.512   
 504.000  9.522    -99999.000 37.217   
 504.200  6.998    -99999.000 39.922   
 504.400  4.478    -99999.000 22.664   
 504.600  4.821    -99999.000 24.953   
 504.800  5.165    -99999.000 27.241   
 505.000  5.508    -99999.000 29.530   
 505.200  5.852    -99999.000 31.819   
 505.400  5.374    -99999.000 27.650   
 505.600  4.710    -99999.000 23.115   
 505.800  4.046    -99999.000 22.332   
 506.000  3.965    -99999.000 22.889   
 506.200  4.035    -99999.000 22.703   
 506.400  3.870    -99999.000 19.727   
 506.600  3.943    -99999.000 22.157   
 506.800  4.255    -99999.000 24.885   
 507.000  4.441    -99999.000 27.612   
 507.200  4.322    -99999.000 27.302   
 507.400  4.535    -99999.000 26.186   
 507.600  4.882    -99999.000 26.372   
 507.800  5.229    -99999.000 30.174   
 508.000  5.575    -99999.000 33.976   
 508.200  5.922    -99999.000 33.388   
 508.400  6.269    -99999.000 27.918   
 508.600  6.184    -99999.000 28.216   
 508.800  5.441    -99999.000 26.465   
 509.000  4.698    -99999.000 25.222   
 509.200  3.954    -99999.000 29.644   
 509.400  4.259    -99999.000 34.066   
 509.600  5.242    -99999.000 38.488   
 509.800  6.225    -99999.000 40.034   
 510.000  7.207    -99999.000 31.037   
 510.200  7.447    -99999.000 22.095   
 510.400  6.601    -99999.000 26.199   
 510.600  5.015    -99999.000 30.303   
 510.800  3.531    -99999.000 34.407   
 511.000  5.493    -99999.000 38.512   
 511.200  7.456    -99999.000 42.616   
 511.400  9.419    -99999.000 46.720   
 511.600  11.381   -99999.000 50.824   
 511.800  13.344   -99999.000 54.928   
 512.000  15.306   -99999.000 59.033   
 512.200  15.786   -99999.000 62.780   
 512.400  15.670   -99999.000 66.464   
 512.600  15.907   -99999.000 55.877   
 512.800  16.220   -99999.000 37.197   
 513.000  10.929   -99999.000 34.572   
 513.200  5.367    -99999.000 37.476   
 513.400  5.881    -99999.000 40.461   
 513.600  6.395    -99999.000 43.515   
 513.800  6.908    -99999.000 46.568   
 514.000  5.983    -99999.000 49.622   
 514.200  5.769    -99999.000 52.676   
 514.400  8.196    -99999.000 55.730   
 514.600  10.688   -99999.000 42.745   
 514.800  10.126   -99999.000 45.380   
 515.000  8.640    -99999.000 48.015   
 515.200  7.899    -99999.000 50.649   
 515.400  9.501    -99999.000 53.284   
 515.600  11.104   -99999.000 55.918   
 515.800  12.706   -99999.000 58.553   
 516.000  13.552   -99999.000 61.188   
 516.200  13.481   -99999.000 63.822   
 516.400  13.505   -99999.000 66.457   
 516.600  13.827   -99999.000 62.915   
 516.800  14.150   -99999.000 51.241   
 517.000  13.883   -99999.000 39.568   
 517.200  10.250   -99999.000 27.895   
 517.400  7.795    -99999.000 20.910   
 517.600  5.334    -99999.000 23.563   
 517.800  3.884    -99999.000 26.216   
 518.000  4.847    -99999.000 28.870   
 518.200  5.810    -99999.000 31.523   
 518.400  6.773    -99999.000 34.176   
 518.600  7.735    -99999.000 36.736   
 518.800  7.244    -99999.000 32.108   
 519.000  6.544    -99999.000 27.479   
 519.200  5.845    -99999.000 23.973   
 519.400  5.145    -99999.000 25.902   
 519.600  4.445    -99999.000 27.830   
 519.800  4.184    -99999.000 28.306   
 520.000  4.349    -99999.000 25.826   
 520.200  4.514    -99999.000 23.346   
 520.400  4.425    -99999.000 23.112   
 520.600  4.247    -99999.000 25.231   
 520.800  4.502    -99999.000 27.350   
 521.000  4.757    -99999.000 29.399   
 521.200  4.510    -99999.000 26.919   
 521.400  4.192    -99999.000 27.211   
 521.600  3.873    -99999.000 28.415   
 521.800  3.555    -99999.000 26.614   
 522.000  3.237    -99999.000 25.675   
 522.200  2.919    -99999.000 33.511   
 522.400  5.259    -99999.000 41.346   
 522.600  7.974    -99999.000 47.299   
 522.800  10.688   -99999.000 39.712   
 523.000  13.402   -99999.000 32.124   
 523.200  11.504   -99999.000 24.537   
 523.400  8.241    -99999.000 26.064   
 523.600  4.978    -99999.000 27.923   
 523.800  1.715    -99999.000 28.193   
 524.000  1.852    -99999.000 26.429   
 524.200  2.017    -99999.000 24.666   
 524.400  4.656    -99999.000 27.346   
 524.600  7.295    -99999.000 33.019   
 524.800  9.934    -99999.000 38.692   
 525.000  12.573   -99999.000 44.366   
 525.200  15.112   -99999.000 50.039   
 525.400  14.953   -99999.000 55.713   
 525.600  14.794   -99999.000 61.386   
 525.800  14.636   -99999.000 67.059   
