~VERSION INFORMATION
 VERS.                          2.0 :CWLS LOG ASCII STANDARD [logix (c) Softland]
 WRAP.                          NO  : ONE LINE PER DEPTH STEP
~WELL INFORMATION
#MNEM.UNIT           DATA                         :DESCRIPTION
#----.----           ----------                      ----------------
 STRT.M  246.000                                  :START DEPTH
 STOP.M  870.000                                  :STOP  DEPTH
 STEP.M 0.200                                     :STEP
 NULL.  -99999.000                                :NULL VALUE
 ALT.M    0.000                                    :KB or GL
 COMP.  Нефтяная компания                          :OIL COMPANY
 WELL.  17                                         :WELL
 FLD .  первое                                     :FIELD
 LOC .                                             :LOCATION
 CTRY.                                             :COUNTRY
 SRVC.                                             :SERVICE COMPANY
 DATE.  15-02-1971                                 :DATE
 API .                                             :API NUMBER
 UWI .                                             :UNIVERSAL WELL INDEX
~Curve Information Section
#MNEM.UNIT           API CODE                       Curve Description
#----.----           ----------                      ----------------
 DEPT.M                       :
 PZ.OHMM                      :
 GZ6.OHMM                     :
 PS.MV                        :
~A DEPT PZ GZ6.OHMM PS
# ...
 686.000  3.934    -99999.000 20.668   
 686.200  3.587    -99999.000 20.706   
 686.400  3.340    -99999.000 20.981   
 686.600  3.439    -99999.000 20.981   
 686.800  3.439    -99999.000 20.981   
 687.000  3.255    -99999.000 20.825   
 687.200  3.338    -99999.000 20.499   
 687.400  3.268    -99999.000 20.198   
 687.600  3.255    -99999.000 20.668   
 687.800  3.428    -99999.000 20.825   
 688.000  3.604    -99999.000 20.668   
 688.200  3.929    -99999.000 20.368   
 688.400  4.255    -99999.000 20.342   
 688.600  3.929    -99999.000 20.511   
 688.800  3.444    -99999.000 20.446   
 689.000  2.958    -99999.000 20.355   
 689.200  2.859    -99999.000 19.924   
 689.400  2.972    -99999.000 19.885   
 689.600  2.956    -99999.000 20.355   
 689.800  2.772    -99999.000 20.315   
 690.000  2.754    -99999.000 20.355   
 690.200  3.312    -99999.000 20.355   
 690.400  3.870    -99999.000 20.787   
 690.600  3.934    -99999.000 21.451   
 690.800  3.785    -99999.000 22.704   
 691.000  3.736    -99999.000 23.371   
 691.200  4.163    -99999.000 23.263   
 691.400  4.590    -99999.000 22.234   
 691.600  5.017    -99999.000 21.725   
 691.800  5.405    -99999.000 23.626   
 692.000  5.256    -99999.000 28.998   
 692.200  6.171    -99999.000 30.899   
 692.400  7.344    -99999.000 30.037   
 692.600  6.777    -99999.000 26.852   
 692.800  6.039    -99999.000 28.092   
 693.000  5.300    -99999.000 29.332   
 693.200  4.562    -99999.000 30.423   
 693.400  3.823    -99999.000 26.951   
 693.600  3.085    -99999.000 23.480   
 693.800  2.833    -99999.000 20.725   
 694.000  2.911    -99999.000 21.022   
 694.200  2.838    -99999.000 20.835   
 694.400  2.692    -99999.000 20.511   
 694.600  2.740    -99999.000 20.511   
 694.800  2.839    -99999.000 20.511   
 695.000  2.848    -99999.000 20.825   
 695.200  2.723    -99999.000 20.511   
 695.400  2.685    -99999.000 20.511   
 695.600  2.892    -99999.000 20.668   
 695.800  3.053    -99999.000 20.668   
 696.000  3.215    -99999.000 20.825   
 696.200  3.290    -99999.000 20.511   
 696.400  2.848    -99999.000 20.511   
 696.600  2.918    -99999.000 20.668   
 696.800  3.111    -99999.000 20.686   
 697.000  3.304    -99999.000 20.825   
 697.200  3.380    -99999.000 20.668   
 697.400  3.286    -99999.000 20.572   
 697.600  3.382    -99999.000 20.355   
 697.800  3.544    -99999.000 20.660   
 698.000  3.627    -99999.000 20.668   
 698.200  3.121    -99999.000 20.668   
 698.400  2.614    -99999.000 20.668   
 698.600  2.462    -99999.000 20.511   
 698.800  2.549    -99999.000 20.668   
 699.000  2.629    -99999.000 21.130   
 699.200  2.554    -99999.000 21.939   
 699.400  2.504    -99999.000 22.234   
 699.600  2.504    -99999.000 22.547   
 699.800  2.473    -99999.000 23.271   
 700.000  2.506    -99999.000 24.113   
 700.200  2.660    -99999.000 24.426   
 700.400  2.767    -99999.000 25.307   
 700.600  2.660    -99999.000 24.260   
 700.800  2.715    -99999.000 23.213   
 701.000  3.001    -99999.000 23.403   
 701.200  3.194    -99999.000 24.767   
 701.400  3.443    -99999.000 26.131   
 701.600  3.130    -99999.000 24.714   
 701.800  2.924    -99999.000 23.262   
 702.000  2.708    -99999.000 21.810   
 702.200  2.967    -99999.000 20.357   
 702.400  3.226    -99999.000 21.079   
 702.600  3.484    -99999.000 23.459   
 702.800  3.743    -99999.000 23.323   
 703.000  4.002    -99999.000 23.321   
 703.200  3.182    -99999.000 24.892   
 703.400  2.766    -99999.000 25.887   
 703.600  2.416    -99999.000 24.580   
 703.800  2.698    -99999.000 23.272   
 704.000  2.980    -99999.000 21.965   
 704.200  3.262    -99999.000 22.761   
 704.400  3.544    -99999.000 23.979   
 704.600  3.341    -99999.000 23.077   
 704.800  3.105    -99999.000 22.176   
 705.000  3.396    6.072    21.274   
 705.200  3.687    6.245    21.483   
 705.400  3.978    6.419    22.227   
 705.600  4.270    6.376    22.775   
 705.800  4.561    6.091    22.209   
 706.000  3.974    5.807    21.642   
 706.200  3.660    6.126    22.565   
 706.400  3.814    6.483    23.584   
 706.600  3.968    6.839    24.604   
 706.800  3.711    6.731    25.623   
 707.000  3.387    6.581    26.643   
 707.200  3.738    6.779    27.306   
 707.400  4.090    6.977    26.934   
 707.600  4.441    5.923    26.562   
 707.800  4.265    5.178    26.857   
 708.000  3.968    5.413    27.398   
 708.200  3.671    5.648    27.939   
 708.400  3.373    5.884    28.340   
 708.600  3.114    6.119    27.871   
 708.800  3.322    5.625    27.111   
 709.000  3.530    5.590    23.906   
 709.200  3.737    5.877    23.330   
 709.400  3.945    6.164    23.589   
 709.600  4.153    6.203    23.643   
 709.800  4.361    6.044    23.489   
 710.000  4.226    6.370    22.704   
 710.200  3.838    6.706    22.390   
 710.400  3.625    7.043    22.780   
 710.600  3.531    6.297    23.017   
 710.800  3.615    5.307    23.146   
 711.000  3.476    5.633    23.485   
 711.200  3.551    6.075    24.451   
 711.400  3.692    6.517    25.103   
 711.600  3.592    6.958    24.819   
 711.800  3.323    6.984    23.383   
 712.000  3.134    6.912    22.833   
 712.200  3.282    6.840    23.173   
 712.400  3.431    6.836    24.608   
 712.600  3.580    6.968    26.186   
 712.800  3.728    6.973    25.046   
 713.000  3.877    6.815    23.905   
 713.200  3.851    6.919    22.764   
 713.400  3.487    6.938    24.051   
 713.600  3.222    6.867    23.356   
 713.800  3.078    6.892    23.956   
 714.000  2.934    7.074    25.019   
 714.200  2.789    7.104    25.087   
 714.400  2.901    6.972    24.260   
 714.600  2.926    6.987    23.434   
 714.800  2.807    7.104    25.178   
 715.000  2.795    7.034    26.369   
 715.200  2.807    6.963    26.128   
 715.400  2.818    7.001    25.508   
 715.600  2.830    7.067    25.111   
 715.800  2.842    6.963    25.331   
 716.000  2.804    6.938    25.551   
 716.200  2.705    6.971    25.469   
 716.400  2.665    6.916    24.973   
 716.600  2.816    6.829    25.054   
 716.800  2.967    6.799    25.649   
 717.000  3.118    6.986    24.786   
 717.200  3.268    7.173    25.352   
 717.400  3.419    7.257    25.494   
 717.600  3.570    7.158    25.060   
 717.800  3.721    7.059    24.626   
 718.000  3.589    7.207    24.781   
 718.200  3.521    7.405    25.001   
 718.400  3.561    7.388    25.198   
 718.600  3.477    7.322    25.012   
 718.800  3.365    7.405    24.826   
 719.000  3.312    7.347    24.805   
 719.200  3.400    7.198    24.929   
 719.400  3.488    7.357    25.053   
 719.600  3.512    7.255    25.177   
 719.800  3.457    7.233    25.104   
 720.000  3.402    7.332    24.962   
 720.200  3.416    7.431    24.820   
 720.400  3.471    7.531    24.678   
 720.600  3.372    7.219    24.742   
 720.800  3.425    7.330    25.238   
 721.000  3.524    7.751    25.734   
 721.200  3.485    8.172    26.230   
 721.400  3.406    8.592    26.726   
 721.600  3.492    9.013    27.222   
 721.800  3.579    8.470    27.308   
 722.000  3.436    7.143    26.536   
 722.200  3.224    7.057    25.765   
 722.400  3.245    6.872    25.452   
 722.600  3.450    6.632    25.633   
 722.800  3.656    6.524    25.813   
 723.000  3.862    6.552    25.974   
 723.200  3.796    6.539    24.793   
 723.400  3.399    6.420    24.934   
 723.600  3.154    6.431    24.997   
 723.800  2.931    6.497    24.666   
 724.000  2.848    6.563    24.336   
 724.200  3.028    6.563    24.374   
 724.400  3.209    6.552    25.175   
 724.600  3.389    6.543    25.976   
 724.800  3.254    6.685    26.777   
 725.000  3.378    6.826    27.228   
 725.200  3.232    6.967    26.449   
 725.400  3.487    7.109    25.686   
 725.600  3.742    7.250    26.323   
 725.800  3.604    7.392    26.961   
 726.000  3.381    7.369    26.094   
 726.200  3.292    7.249    26.390   
 726.400  3.523    7.368    28.002   
 726.600  3.755    7.487    29.613   
 726.800  3.986    7.530    31.225   
 727.000  3.931    7.363    29.955   
