~VERSION INFORMATION
 VERS.                          2.0 :CWLS LOG ASCII STANDARD [logix (c) Softland]
 WRAP.                          NO  : ONE LINE PER DEPTH STEP
~WELL INFORMATION
#MNEM.UNIT           DATA                         :DESCRIPTION
#----.----           ----------                      ----------------
 STRT.M  246.000                                  :START DEPTH
 STOP.M  870.000                                  :STOP  DEPTH
 STEP.M 0.200                                     :STEP
 NULL.  -99999.000                                :NULL VALUE
 ALT.M    0.000                                    :KB or GL
 COMP.  Нефтяная компания                          :OIL COMPANY
 WELL.  17                                         :WELL
 FLD .  первое                                     :FIELD
 LOC .                                             :LOCATION
 CTRY.                                             :COUNTRY
 SRVC.                                             :SERVICE COMPANY
 DATE.  15-02-1971                                 :DATE
 API .                                             :API NUMBER
 UWI .                                             :UNIVERSAL WELL INDEX
~Curve Information Section
#MNEM.UNIT           API CODE                       Curve Description
#----.----           ----------                      ----------------
 DEPT.M                       :
 PZ.OHMM                      :
 GZ6.OHMM                     :
 PS.MV                        :
~A DEPT PZ GZ6.OHMM PS
# ...
 606.000  8.443    -99999.000 28.402   
 606.200  7.754    -99999.000 27.835   
 606.400  8.785    -99999.000 28.571   
 606.600  9.816    -99999.000 29.662   
 606.800  10.847   -99999.000 30.753   
 607.000  11.877   -99999.000 31.844   
 607.200  12.908   -99999.000 32.935   
 607.400  13.939   -99999.000 34.026   
 607.600  12.552   -99999.000 35.117   
 607.800  10.953   -99999.000 36.208   
 608.000  10.241   -99999.000 31.899   
 608.200  10.894   -99999.000 26.940   
 608.400  11.546   -99999.000 22.317   
 608.600  12.199   -99999.000 23.958   
 608.800  11.473   -99999.000 25.598   
 609.000  9.846    -99999.000 27.239   
 609.200  8.219    -99999.000 28.879   
 609.400  6.591    -99999.000 27.667   
 609.600  6.439    -99999.000 26.293   
 609.800  6.621    -99999.000 24.920   
 610.000  6.234    -99999.000 23.547   
 610.200  6.056    -99999.000 23.330   
 610.400  6.377    -99999.000 23.330   
 610.600  6.697    -99999.000 23.330   
 610.800  7.017    -99999.000 23.912   
 611.000  7.128    -99999.000 24.762   
 611.200  6.566    -99999.000 23.855   
 611.400  6.328    -99999.000 22.121   
 611.600  6.711    -99999.000 24.546   
 611.800  7.093    -99999.000 26.970   
 612.000  7.475    -99999.000 27.342   
 612.200  7.858    -99999.000 24.225   
 612.400  7.781    -99999.000 22.176   
 612.600  7.729    -99999.000 25.722   
 612.800  9.922    -99999.000 29.268   
 613.000  12.115   -99999.000 32.813   
 613.200  14.308   -99999.000 36.359   
 613.400  16.501   -99999.000 39.905   
 613.600  18.694   -99999.000 43.451   
 613.800  18.103   -99999.000 42.949   
 614.000  17.323   -99999.000 42.769   
 614.200  17.511   -99999.000 43.348   
 614.400  17.698   -99999.000 42.845   
 614.600  17.885   -99999.000 42.044   
 614.800  18.072   -99999.000 42.788   
 615.000  18.260   -99999.000 43.532   
 615.200  17.997   -99999.000 44.276   
 615.400  17.050   -99999.000 43.294   
 615.600  16.104   -99999.000 38.665   
 615.800  15.158   -99999.000 36.145   
 616.000  14.212   -99999.000 36.455   
 616.200  13.266   -99999.000 36.765   
 616.400  12.319   -99999.000 34.114   
 616.600  12.259   -99999.000 31.139   
 616.800  13.277   -99999.000 28.498   
 617.000  14.295   -99999.000 31.143   
 617.200  15.313   -99999.000 33.788   
 617.400  16.332   -99999.000 36.432   
 617.600  17.350   -99999.000 39.077   
 617.800  18.368   -99999.000 41.722   
 618.000  18.828   -99999.000 43.169   
 618.200  18.739   -99999.000 42.632   
 618.400  18.650   -99999.000 42.095   
 618.600  18.636   -99999.000 41.558   
 618.800  18.765   -99999.000 41.741   
 619.000  18.894   -99999.000 42.430   
 619.200  18.948   -99999.000 43.119   
 619.400  18.681   -99999.000 43.807   
 619.600  18.414   -99999.000 44.496   
 619.800  18.147   -99999.000 45.185   
 620.000  17.915   -99999.000 43.293   
 620.200  18.055   -99999.000 41.129   
 620.400  18.196   -99999.000 38.965   
 620.600  18.336   -99999.000 37.922   
 620.800  18.133   -99999.000 38.356   
 621.000  17.109   -99999.000 38.790   
 621.200  16.084   -99999.000 37.932   
 621.400  15.783   -99999.000 36.971   
 621.600  16.352   -99999.000 38.582   
 621.800  16.922   -99999.000 40.194   
 622.000  17.492   -99999.000 41.806   
 622.200  18.062   -99999.000 43.418   
 622.400  18.632   -99999.000 45.029   
 622.600  18.878   -99999.000 46.641   
 622.800  17.093   -99999.000 44.815   
 623.000  15.309   -99999.000 41.494   
 623.200  13.525   -99999.000 38.174   
 623.400  11.714   -99999.000 34.853   
 623.600  9.137    -99999.000 31.533   
 623.800  6.560    -99999.000 28.212   
 624.000  4.598    -99999.000 24.892   
 624.200  5.235    -99999.000 23.260   
 624.400  5.872    -99999.000 23.818   
 624.600  6.509    -99999.000 24.375   
 624.800  7.147    -99999.000 24.050   
 625.000  6.936    -99999.000 23.661   
 625.200  6.474    -99999.000 24.844   
 625.400  7.181    -99999.000 26.026   
 625.600  8.053    -99999.000 27.209   
 625.800  8.925    -99999.000 28.391   
 626.000  8.957    -99999.000 28.407   
 626.200  8.660    -99999.000 28.715   
 626.400  8.567    -99999.000 29.842   
 626.600  9.331    -99999.000 30.969   
 626.800  10.096   -99999.000 32.096   
 627.000  10.861   -99999.000 31.829   
 627.200  11.625   -99999.000 31.333   
 627.400  11.669   -99999.000 31.684   
 627.600  11.499   -99999.000 33.730   
 627.800  12.045   -99999.000 35.775   
 628.000  13.150   -99999.000 37.110   
 628.200  14.255   -99999.000 38.276   
 628.400  15.360   -99999.000 39.441   
 628.600  16.466   -99999.000 40.606   
 628.800  17.571   -99999.000 41.772   
 629.000  18.267   -99999.000 42.937   
 629.200  17.712   -99999.000 43.528   
 629.400  17.157   -99999.000 43.528   
 629.600  16.602   -99999.000 43.528   
 629.800  16.047   -99999.000 44.028   
 630.000  15.987   -99999.000 45.516   
 630.200  16.403   -99999.000 47.003   
 630.400  16.820   -99999.000 48.491   
 630.600  17.236   -99999.000 49.979   
 630.800  17.652   -99999.000 51.031   
 631.000  18.069   -99999.000 50.986   
 631.200  18.485   -99999.000 50.941   
 631.400  18.901   -99999.000 50.896   
 631.600  19.061   -99999.000 50.887   
 631.800  19.061   -99999.000 50.887   
 632.000  19.061   -99999.000 50.887   
 632.200  19.061   -99999.000 50.887   
 632.400  19.061   -99999.000 51.044   
 632.600  19.061   -99999.000 51.044   
 632.800  19.061   -99999.000 50.798   
 633.000  19.061   -99999.000 50.574   
 633.200  19.061   -99999.000 50.731   
 633.400  19.061   -99999.000 50.719   
 633.600  19.061   -99999.000 50.261   
 633.800  19.061   -99999.000 50.731   
 634.000  19.061   -99999.000 50.731   
 634.200  19.061   -99999.000 50.731   
 634.400  19.061   -99999.000 50.731   
 634.600  19.061   -99999.000 51.983   
 634.800  19.061   -99999.000 51.983   
 635.000  19.061   -99999.000 52.075   
 635.200  19.061   -99999.000 51.983   
 635.400  19.061   -99999.000 51.553   
 635.600  19.061   -99999.000 50.887   
 635.800  19.061   -99999.000 50.874   
 636.000  19.061   -99999.000 50.731   
 636.200  19.061   -99999.000 50.887   
 636.400  19.061   -99999.000 50.796   
 636.600  19.061   -99999.000 51.200   
 636.800  19.061   -99999.000 51.056   
 637.000  19.061   -99999.000 51.044   
 637.200  19.061   -99999.000 51.044   
 637.400  19.061   -99999.000 51.044   
 637.600  19.061   -99999.000 51.044   
 637.800  19.061   -99999.000 50.926   
 638.000  19.061   -99999.000 50.887   
 638.200  19.061   -99999.000 51.058   
 638.400  19.061   -99999.000 51.200   
 638.600  19.061   -99999.000 50.887   
 638.800  19.061   -99999.000 50.795   
 639.000  19.061   -99999.000 50.574   
 639.200  19.061   -99999.000 50.574   
 639.400  19.061   -99999.000 50.574   
 639.600  19.061   -99999.000 50.574   
 639.800  19.061   -99999.000 50.507   
 640.000  19.061   -99999.000 50.667   
 640.200  19.061   -99999.000 51.163   
 640.400  19.061   -99999.000 51.200   
 640.600  19.061   -99999.000 49.463   
 640.800  19.061   -99999.000 49.123   
 641.000  19.061   -99999.000 48.852   
 641.200  19.061   -99999.000 47.865   
 641.400  19.061   -99999.000 48.005   
 641.600  19.061   -99999.000 48.451   
 641.800  19.061   -99999.000 48.897   
 642.000  18.153   -99999.000 47.674   
 642.200  16.393   -99999.000 43.955   
 642.400  14.634   -99999.000 40.236   
 642.600  12.875   -99999.000 36.516   
 642.800  11.115   -99999.000 32.797   
 643.000  10.264   -99999.000 29.077   
 643.200  10.379   -99999.000 28.917   
 643.400  10.165   -99999.000 29.602   
 643.600  9.950    -99999.000 28.539   
 643.800  9.735    -99999.000 27.476   
 644.000  10.231   -99999.000 25.282   
 644.200  11.740   -99999.000 24.619   
 644.400  13.250   -99999.000 26.957   
 644.600  14.760   -99999.000 29.295   
 644.800  15.211   -99999.000 31.632   
 645.000  13.272   -99999.000 33.970   
 645.200  11.334   -99999.000 29.718   
 645.400  11.093   -99999.000 24.972   
 645.600  12.803   -99999.000 25.703   
 645.800  14.513   -99999.000 28.564   
