~VERSION INFORMATION
 VERS.                          2.0 :CWLS LOG ASCII STANDARD [logix (c) Softland]
 WRAP.                          NO  : ONE LINE PER DEPTH STEP
~WELL INFORMATION
#MNEM.UNIT           DATA                         :DESCRIPTION
#----.----           ----------                      ----------------
 STRT.M  246.000                                  :START DEPTH
 STOP.M  870.000                                  :STOP  DEPTH
 STEP.M 0.200                                     :STEP
 NULL.  -99999.000                                :NULL VALUE
 ALT.M    0.000                                    :KB or GL
 COMP.  Нефтяная компания                          :OIL COMPANY
 WELL.  17                                         :WELL
 FLD .  первое                                     :FIELD
 LOC .                                             :LOCATION
 CTRY.                                             :COUNTRY
 SRVC.                                             :SERVICE COMPANY
 DATE.  15-02-1971                                 :DATE
 API .                                             :API NUMBER
 UWI .                                             :UNIVERSAL WELL INDEX
~Curve Information Section
#MNEM.UNIT           API CODE                       Curve Description
#----.----           ----------                      ----------------
 DEPT.M                       :
 PZ.OHMM                      :
 GZ6.OHMM                     :
 PS.MV                        :
~A DEPT PZ GZ6.OHMM PS
# ...
 566.000  12.795   -99999.000 39.313   
 566.200  14.149   -99999.000 46.075   
 566.400  15.504   -99999.000 52.838   
 566.600  16.859   -99999.000 59.148   
 566.800  18.213   -99999.000 58.528   
 567.000  16.326   -99999.000 57.908   
 567.200  14.274   -99999.000 58.749   
 567.400  12.222   -99999.000 58.085   
 567.600  12.161   -99999.000 50.119   
 567.800  12.616   -99999.000 51.580   
 568.000  13.071   -99999.000 53.042   
 568.200  13.525   -99999.000 54.504   
 568.400  13.980   -99999.000 55.965   
 568.600  11.503   -99999.000 57.427   
 568.800  11.646   -99999.000 58.774   
 569.000  11.789   -99999.000 49.777   
 569.200  8.998    -99999.000 40.779   
 569.400  10.683   -99999.000 41.443   
 569.600  12.368   -99999.000 44.508   
 569.800  14.053   -99999.000 47.574   
 570.000  15.738   -99999.000 50.640   
 570.200  17.423   -99999.000 53.706   
 570.400  19.108   -99999.000 56.771   
 570.600  19.176   -99999.000 59.837   
 570.800  19.165   -99999.000 62.903   
 571.000  19.156   -99999.000 65.968   
 571.200  19.167   -99999.000 69.034   
 571.400  19.178   -99999.000 71.037   
 571.600  19.189   -99999.000 71.321   
 571.800  19.200   -99999.000 71.453   
 572.000  19.211   -99999.000 70.858   
 572.200  19.249   -99999.000 70.263   
 572.400  18.483   -99999.000 69.680   
 572.600  17.521   -99999.000 69.895   
 572.800  16.560   -99999.000 70.111   
 573.000  15.598   -99999.000 70.326   
 573.200  14.637   -99999.000 70.542   
 573.400  13.675   -99999.000 70.758   
 573.600  13.272   -99999.000 70.973   
 573.800  13.471   -99999.000 71.189   
 574.000  13.521   -99999.000 68.703   
 574.200  13.182   -99999.000 65.331   
 574.400  13.451   -99999.000 61.959   
 574.600  14.349   -99999.000 61.591   
 574.800  15.247   -99999.000 63.262   
 575.000  16.144   -99999.000 64.933   
 575.200  17.042   -99999.000 66.605   
 575.400  17.940   -99999.000 68.276   
 575.600  18.216   -99999.000 69.948   
 575.800  18.412   -99999.000 71.619   
 576.000  18.868   -99999.000 73.291   
 576.200  17.772   -99999.000 74.394   
 576.400  16.405   -99999.000 68.071   
 576.600  15.039   -99999.000 67.392   
 576.800  13.672   -99999.000 68.054   
 577.000  12.305   -99999.000 68.715   
 577.200  10.938   -99999.000 55.442   
 577.400  10.880   -99999.000 56.144   
 577.600  11.050   -99999.000 56.847   
 577.800  11.220   -99999.000 57.549   
 578.000  11.390   -99999.000 56.278   
 578.200  10.093   -99999.000 48.426   
 578.400  6.862    -99999.000 40.574   
 578.600  7.129    -99999.000 32.722   
 578.800  8.002    -99999.000 30.284   
 579.000  8.875    -99999.000 34.681   
 579.200  9.748    -99999.000 39.078   
 579.400  10.621   -99999.000 43.476   
 579.600  11.494   -99999.000 47.873   
 579.800  12.367   -99999.000 46.714   
 580.000  13.241   -99999.000 43.242   
 580.200  7.366    -99999.000 39.771   
 580.400  8.284    -99999.000 40.063   
 580.600  9.201    -99999.000 40.311   
 580.800  10.119   -99999.000 38.901   
 581.000  11.037   -99999.000 41.953   
 581.200  11.955   -99999.000 45.005   
 581.400  12.873   -99999.000 48.057   
 581.600  13.791   -99999.000 51.109   
 581.800  10.385   -99999.000 41.562   
 582.000  8.233    -99999.000 39.355   
 582.200  8.946    -99999.000 41.586   
 582.400  9.658    -99999.000 43.818   
 582.600  10.371   -99999.000 46.050   
 582.800  11.083   -99999.000 48.281   
 583.000  11.379   -99999.000 50.513   
 583.200  11.241   -99999.000 51.024   
 583.400  11.638   -99999.000 50.563   
 583.600  11.718   -99999.000 53.714   
 583.800  11.608   -99999.000 56.864   
 584.000  13.706   -99999.000 60.015   
 584.200  15.184   -99999.000 63.165   
 584.400  12.045   -99999.000 65.784   
 584.600  9.849    -99999.000 49.022   
 584.800  10.921   -99999.000 43.793   
 585.000  11.994   -99999.000 52.769   
 585.200  13.066   -99999.000 61.745   
 585.400  14.138   -99999.000 67.804   
 585.600  15.211   -99999.000 66.750   
 585.800  16.283   -99999.000 65.696   
 586.000  16.801   -99999.000 66.788   
 586.200  15.876   -99999.000 68.538   
 586.400  14.951   -99999.000 70.289   
 586.600  14.026   -99999.000 72.039   
 586.800  13.707   -99999.000 73.789   
 587.000  14.024   -99999.000 69.642   
 587.200  11.205   -99999.000 56.562   
 587.400  9.421    -99999.000 43.482   
 587.600  10.366   -99999.000 43.120   
 587.800  11.312   -99999.000 44.628   
 588.000  12.257   -99999.000 46.136   
 588.200  12.944   -99999.000 47.643   
 588.400  12.850   -99999.000 49.151   
 588.600  13.023   -99999.000 50.658   
 588.800  13.197   -99999.000 52.166   
 589.000  10.920   -99999.000 53.674   
 589.200  7.837    -99999.000 47.487   
 589.400  4.754    -99999.000 41.133   
 589.600  3.619    -99999.000 34.779   
 589.800  3.809    -99999.000 28.425   
 590.000  4.000    -99999.000 22.070   
 590.200  4.191    -99999.000 22.494   
 590.400  4.175    -99999.000 23.451   
 590.600  3.943    -99999.000 24.407   
 590.800  4.520    -99999.000 25.364   
 591.000  5.799    -99999.000 24.865   
 591.200  7.078    -99999.000 22.952   
 591.400  8.357    -99999.000 22.480   
 591.600  9.635    -99999.000 25.417   
 591.800  10.914   -99999.000 28.354   
 592.000  12.193   -99999.000 31.292   
 592.200  4.384    -99999.000 32.748   
 592.400  4.364    -99999.000 27.987   
 592.600  4.376    -99999.000 26.300   
 592.800  4.150    -99999.000 26.548   
 593.000  4.063    -99999.000 26.569   
 593.200  4.451    -99999.000 24.231   
 593.400  4.838    -99999.000 21.893   
 593.600  5.226    -99999.000 23.001   
 593.800  5.238    -99999.000 24.588   
 594.000  5.128    -99999.000 26.175   
 594.200  5.017    -99999.000 25.546   
 594.400  5.253    -99999.000 25.193   
 594.600  5.521    -99999.000 26.185   
 594.800  5.789    -99999.000 22.962   
 595.000  6.057    -99999.000 23.744   
 595.200  6.326    -99999.000 24.859   
 595.400  6.272    -99999.000 25.975   
 595.600  6.113    -99999.000 27.091   
 595.800  6.367    -99999.000 28.207   
 596.000  6.530    -99999.000 26.507   
 596.200  5.499    -99999.000 25.742   
 596.400  5.642    -99999.000 28.029   
 596.600  6.992    -99999.000 30.316   
 596.800  8.342    -99999.000 32.603   
 597.000  9.692    -99999.000 34.889   
 597.200  11.042   -99999.000 37.176   
 597.400  12.392   -99999.000 22.860   
 597.600  13.742   -99999.000 24.418   
 597.800  11.125   -99999.000 26.313   
 598.000  9.041    -99999.000 28.208   
 598.200  9.908    -99999.000 30.103   
 598.400  10.775   -99999.000 31.999   
 598.600  11.643   -99999.000 33.894   
 598.800  12.510   -99999.000 35.789   
 599.000  11.931   -99999.000 37.684   
 599.200  8.148    -99999.000 37.528   
 599.400  8.406    -99999.000 27.986   
 599.600  7.447    -99999.000 28.565   
 599.800  6.206    -99999.000 28.125   
 600.000  6.523    -99999.000 25.370   
 600.200  6.192    -99999.000 22.615   
 600.400  5.324    -99999.000 21.460   
 600.600  4.512    -99999.000 22.154   
 600.800  6.189    -99999.000 22.848   
 601.000  7.867    -99999.000 22.975   
 601.200  9.544    -99999.000 21.818   
 601.400  11.222   -99999.000 22.410   
 601.600  12.899   -99999.000 25.496   
 601.800  14.577   -99999.000 28.581   
 602.000  16.254   -99999.000 31.667   
 602.200  17.932   -99999.000 34.753   
 602.400  17.410   -99999.000 37.839   
 602.600  16.379   -99999.000 39.785   
 602.800  15.349   -99999.000 41.308   
 603.000  14.318   -99999.000 42.831   
 603.200  13.287   -99999.000 44.355   
 603.400  12.256   -99999.000 44.110   
 603.600  11.225   -99999.000 39.914   
 603.800  10.194   -99999.000 35.718   
 604.000  9.163    -99999.000 31.521   
 604.200  8.556    -99999.000 28.358   
 604.400  8.774    -99999.000 29.208   
 604.600  8.992    -99999.000 30.058   
 604.800  9.210    -99999.000 25.624   
 605.000  9.428    -99999.000 21.787   
 605.200  9.646    -99999.000 23.580   
 605.400  9.864    -99999.000 25.373   
 605.600  10.082   -99999.000 27.166   
 605.800  9.661    -99999.000 28.959   
