~VERSION INFORMATION
 VERS.                          2.0 :CWLS LOG ASCII STANDARD [logix (c) Softland]
 WRAP.                          NO  : ONE LINE PER DEPTH STEP
~WELL INFORMATION
#MNEM.UNIT           DATA                         :DESCRIPTION
#----.----           ----------                      ----------------
 STRT.M  246.000                                  :START DEPTH
 STOP.M  870.000                                  :STOP  DEPTH
 STEP.M 0.200                                     :STEP
 NULL.  -99999.000                                :NULL VALUE
 ALT.M    0.000                                    :KB or GL
 COMP.  Нефтяная компания                          :OIL COMPANY
 WELL.  17                                         :WELL
 FLD .  первое                                     :FIELD
 LOC .                                             :LOCATION
 CTRY.                                             :COUNTRY
 SRVC.                                             :SERVICE COMPANY
 DATE.  15-02-1971                                 :DATE
 API .                                             :API NUMBER
 UWI .                                             :UNIVERSAL WELL INDEX
~Curve Information Section
#MNEM.UNIT           API CODE                       Curve Description
#----.----           ----------                      ----------------
 DEPT.M                       :
 PZ.OHMM                      :
 GZ6.OHMM                     :
 PS.MV                        :
~A DEPT PZ GZ6.OHMM PS
# ...
 809.200  2.843    -99999.000 29.607   
 809.400  2.684    -99999.000 30.953   
 809.600  2.525    -99999.000 31.851   
 809.800  2.775    -99999.000 30.198   
 810.000  3.089    -99999.000 29.220   
 810.200  2.826    -99999.000 30.211   
 810.400  2.618    -99999.000 30.341   
 810.600  3.300    -99999.000 30.057   
 810.800  3.982    -99999.000 31.551   
 811.000  4.664    -99999.000 35.077   
 811.200  5.347    -99999.000 38.604   
 811.400  6.029    -99999.000 39.750   
 811.600  5.263    -99999.000 39.466   
 811.800  3.897    -99999.000 40.612   
 812.000  2.531    -99999.000 43.773   
 812.200  2.462    -99999.000 46.935   
 812.400  2.291    -99999.000 29.256   
 812.600  2.092    -99999.000 30.380   
 812.800  2.197    -99999.000 31.504   
 813.000  2.426    -99999.000 32.628   
 813.200  2.655    -99999.000 33.752   
 813.400  2.884    -99999.000 33.062   
 813.600  3.114    -99999.000 30.706   
 813.800  2.770    -99999.000 28.350   
 814.000  2.126    -99999.000 29.238   
 814.200  2.160    -99999.000 30.140   
 814.400  2.408    -99999.000 31.042   
 814.600  2.343    -99999.000 30.392   
 814.800  2.459    -99999.000 28.325   
 815.000  2.445    -99999.000 27.786   
 815.200  2.181    -99999.000 28.150   
 815.400  2.138    -99999.000 28.513   
 815.600  2.369    -99999.000 28.877   
 815.800  2.600    -99999.000 29.241   
 816.000  2.512    -99999.000 28.918   
 816.200  2.562    -99999.000 28.512   
 816.400  2.793    -99999.000 28.106   
 816.600  2.319    -99999.000 28.391   
 816.800  2.109    -99999.000 29.631   
 817.000  2.385    -99999.000 30.870   
 817.200  2.660    -99999.000 31.666   
 817.400  2.624    -99999.000 31.211   
 817.600  2.690    -99999.000 30.757   
 817.800  2.863    -99999.000 30.302   
 818.000  2.904    -99999.000 30.356   
 818.200  2.359    -99999.000 30.976   
 818.400  2.517    -99999.000 31.596   
 818.600  2.576    -99999.000 30.584   
 818.800  2.328    -99999.000 29.482   
 819.000  2.080    -99999.000 28.497   
 819.200  2.237    -99999.000 28.497   
 819.400  2.485    -99999.000 28.497   
 819.600  2.453    -99999.000 28.497   
 819.800  2.398    -99999.000 28.560   
 820.000  2.359    -99999.000 28.758   
 820.200  2.508    -99999.000 29.289   
 820.400  2.470    -99999.000 29.938   
 820.600  2.438    -99999.000 30.586   
 820.800  2.557    -99999.000 31.235   
 821.000  2.794    -99999.000 31.157   
 821.200  3.013    -99999.000 30.661   
 821.400  3.081    -99999.000 30.316   
 821.600  2.949    -99999.000 31.209   
 821.800  2.899    -99999.000 32.102   
 822.000  3.114    -99999.000 32.994   
 822.200  3.166    -99999.000 32.094   
 822.400  2.905    -99999.000 31.178   
 822.600  2.645    -99999.000 31.508   
 822.800  2.801    -99999.000 31.839   
 823.000  3.048    -99999.000 31.884   
 823.200  3.296    -99999.000 30.892   
 823.400  3.522    -99999.000 30.493   
 823.600  3.303    -99999.000 30.431   
 823.800  3.452    -99999.000 30.443   
 824.000  3.287    -99999.000 31.049   
 824.200  3.256    -99999.000 31.655   
 824.400  3.653    -99999.000 31.942   
 824.600  3.844    -99999.000 31.364   
 824.800  3.646    -99999.000 31.188   
 825.000  3.537    -99999.000 31.684   
 825.200  3.713    -99999.000 32.180   
 825.400  3.928    -99999.000 32.460   
 825.600  3.210    -99999.000 31.964   
 825.800  2.450    -99999.000 31.468   
 826.000  2.748    -99999.000 31.505   
 826.200  2.598    -99999.000 32.426   
 826.400  2.313    -99999.000 33.074   
 826.600  2.208    -99999.000 32.353   
 826.800  2.666    -99999.000 31.631   
 827.000  3.124    -99999.000 30.910   
 827.200  3.583    -99999.000 33.096   
 827.400  4.041    -99999.000 36.567   
 827.600  4.254    -99999.000 40.039   
 827.800  3.411    -99999.000 39.442   
 828.000  2.859    -99999.000 35.326   
 828.200  2.638    -99999.000 31.210   
 828.400  2.936    -99999.000 28.700   
 828.600  2.852    -99999.000 28.824   
 828.800  2.834    -99999.000 28.948   
 829.000  2.993    -99999.000 28.882   
 829.200  2.876    -99999.000 28.878   
 829.400  2.864    -99999.000 29.126   
 829.600  3.091    -99999.000 29.374   
 829.800  3.264    -99999.000 29.622   
 830.000  3.098    -99999.000 30.568   
 830.200  3.016    -99999.000 32.255   
 830.400  3.192    -99999.000 31.897   
 830.600  3.369    -99999.000 31.330   
 830.800  3.426    -99999.000 31.908   
 831.000  3.308    -99999.000 32.982   
 831.200  3.141    -99999.000 31.292   
 831.400  2.965    -99999.000 28.923   
 831.600  2.789    -99999.000 26.553   
 831.800  2.894    -99999.000 26.080   
 832.000  3.004    -99999.000 25.977   
 832.200  3.076    -99999.000 26.349   
 832.400  2.913    -99999.000 26.721   
 832.600  2.750    -99999.000 26.279   
 832.800  2.587    -99999.000 25.700   
 833.000  2.425    -99999.000 26.514   
 833.200  2.621    -99999.000 26.558   
 833.400  2.887    -99999.000 26.248   
 833.600  2.717    -99999.000 26.035   
 833.800  2.547    -99999.000 26.283   
 834.000  2.668    -99999.000 26.135   
 834.200  2.811    -99999.000 25.949   
 834.400  2.929    -99999.000 25.954   
 834.600  2.774    -99999.000 26.264   
 834.800  2.620    -99999.000 26.574   
 835.000  2.577    -99999.000 26.476   
 835.200  2.874    -99999.000 26.311   
 835.400  3.066    -99999.000 26.783   
 835.600  3.186    -99999.000 27.222   
 835.800  3.115    -99999.000 26.912   
 836.000  3.045    -99999.000 26.603   
 836.200  3.444    -99999.000 26.770   
 836.400  3.701    -99999.000 27.337   
 836.600  3.688    -99999.000 27.399   
 836.800  3.539    -99999.000 26.456   
 837.000  3.652    -99999.000 25.514   
 837.200  3.841    -99999.000 24.982   
 837.400  4.030    -99999.000 26.353   
 837.600  4.096    -99999.000 27.724   
 837.800  3.889    -99999.000 29.095   
 838.000  4.112    -99999.000 30.466   
 838.200  3.882    -99999.000 31.838   
 838.400  3.518    -99999.000 31.214   
 838.600  3.155    -99999.000 30.123   
 838.800  2.791    -99999.000 29.032   
 839.000  2.920    -99999.000 28.653   
 839.200  3.056    -99999.000 28.653   
 839.400  3.020    -99999.000 28.617   
 839.600  2.779    -99999.000 28.534   
 839.800  2.663    -99999.000 29.238   
 840.000  2.928    -99999.000 30.591   
 840.200  3.064    -99999.000 31.943   
 840.400  2.964    -99999.000 33.030   
 840.600  2.944    -99999.000 30.848   
 840.800  3.394    -99999.000 28.666   
 841.000  3.845    -99999.000 26.484   
 841.200  4.296    -99999.000 26.457   
 841.400  4.283    -99999.000 26.622   
 841.600  4.043    -99999.000 26.873   
 841.800  4.026    -99999.000 28.156   
 842.000  4.167    -99999.000 29.440   
 842.200  4.178    -99999.000 30.723   
 842.400  4.425    -99999.000 32.007   
 842.600  4.268    -99999.000 33.291   
 842.800  3.975    -99999.000 29.444   
 843.000  4.322    -99999.000 28.765   
 843.200  3.889    -99999.000 29.733   
 843.400  3.294    -99999.000 30.701   
 843.600  3.379    -99999.000 31.670   
 843.800  3.481    -99999.000 32.638   
 844.000  2.929    -99999.000 33.606   
 844.200  3.127    -99999.000 34.303   
 844.400  3.245    -99999.000 33.212   
 844.600  3.034    -99999.000 32.121   
 844.800  2.824    -99999.000 31.030   
 845.000  2.854    -99999.000 29.939   
 845.200  3.003    -99999.000 29.672   
 845.400  2.754    -99999.000 30.664   
 845.600  2.390    -99999.000 31.656   
 845.800  2.566    -99999.000 31.745   
 846.000  2.814    -99999.000 31.107   
 846.200  2.604    -99999.000 30.860   
 846.400  2.753    -99999.000 31.356   
 846.600  2.202    -99999.000 31.852   
 846.800  2.430    -99999.000 32.082   
 847.000  2.658    -99999.000 31.161   
 847.200  2.742    -99999.000 30.240   
 847.400  2.494    -99999.000 30.973   
 847.600  2.246    -99999.000 31.744   
 847.800  2.067    -99999.000 32.516   
 848.000  2.292    -99999.000 33.287   
 848.200  2.517    -99999.000 34.059   
 848.400  2.741    -99999.000 33.875   
 848.600  2.966    -99999.000 31.395   
 848.800  3.029    -99999.000 31.398   
 849.000  2.859    -99999.000 32.390   
