~VERSION INFORMATION
 VERS.                          2.0 :CWLS LOG ASCII STANDARD [logix (c) Softland]
 WRAP.                          NO  : ONE LINE PER DEPTH STEP
~WELL INFORMATION
#MNEM.UNIT           DATA                         :DESCRIPTION
#----.----           ----------                      ----------------
 STRT.M  246.000                                  :START DEPTH
 STOP.M  870.000                                  :STOP  DEPTH
 STEP.M 0.200                                     :STEP
 NULL.  -99999.000                                :NULL VALUE
 ALT.M    0.000                                    :KB or GL
 COMP.  Нефтяная компания                          :OIL COMPANY
 WELL.  17                                         :WELL
 FLD .  первое                                     :FIELD
 LOC .                                             :LOCATION
 CTRY.                                             :COUNTRY
 SRVC.                                             :SERVICE COMPANY
 DATE.  15-02-1971                                 :DATE
 API .                                             :API NUMBER
 UWI .                                             :UNIVERSAL WELL INDEX
~Curve Information Section
#MNEM.UNIT           API CODE                       Curve Description
#----.----           ----------                      ----------------
 DEPT.M                       :
 PZ.OHMM                      :
 GZ6.OHMM                     :
 PS.MV                        :
~A DEPT PZ GZ6.OHMM PS
# ...
 727.200  3.598    7.196    27.723   
 727.400  3.264    7.029    28.461   
 727.600  2.949    6.862    29.701   
 727.800  3.147    6.764    28.415   
 728.000  3.345    6.932    28.506   
 728.200  3.543    7.101    30.986   
 728.400  3.765    7.269    33.465   
 728.600  4.006    7.437    34.588   
 728.800  4.034    7.606    31.046   
 729.000  3.666    7.774    27.596   
 729.200  3.386    7.761    30.138   
 729.400  3.650    7.723    32.679   
 729.600  3.801    7.726    33.026   
 729.800  3.603    7.800    31.084   
 730.000  3.779    7.875    29.142   
 730.200  3.820    7.877    27.199   
 730.400  3.735    7.865    28.736   
 730.600  3.929    7.771    31.759   
 730.800  4.394    7.489    34.781   
 731.000  4.859    7.206    37.804   
 731.200  5.323    6.923    40.827   
 731.400  5.788    6.640    43.850   
 731.600  5.576    7.414    46.406   
 731.800  4.556    8.341    42.804   
 732.000  3.872    9.268    39.202   
 732.200  4.219    9.507    35.600   
 732.400  3.884    8.699    31.998   
 732.600  3.537    7.890    28.396   
 732.800  3.190    7.081    25.128   
 733.000  3.239    6.810    26.186   
 733.200  3.371    6.893    27.244   
 733.400  3.288    6.875    28.302   
 733.600  3.189    6.816    29.360   
 733.800  3.361    6.756    29.087   
 734.000  3.582    6.787    26.183   
 734.200  3.458    6.891    23.794   
 734.400  3.334    6.996    24.999   
 734.600  3.429    7.101    26.203   
 734.800  3.660    7.206    25.624   
 735.000  3.716    7.288    26.317   
 735.200  3.703    7.264    27.776   
 735.400  3.864    7.239    29.235   
 735.600  4.738    7.188    30.693   
 735.800  5.612    7.122    32.152   
 736.000  6.486    7.216    31.024   
 736.200  5.687    7.254    26.383   
 736.400  4.243    7.175    27.540   
 736.600  3.651    7.242    27.901   
 736.800  3.761    7.324    27.263   
 737.000  3.705    7.253    27.731   
 737.200  4.058    7.182    31.822   
 737.400  4.410    7.382    30.437   
 737.600  4.495    7.652    28.887   
 737.800  4.166    7.922    31.842   
 738.000  4.464    8.192    40.415   
 738.200  6.934    8.462    48.987   
 738.400  9.403    8.732    57.560   
 738.600  11.872   9.002    65.809   
 738.800  11.511   8.983    61.393   
 739.000  10.332   9.083    56.976   
 739.200  9.153    9.311    52.560   
 739.400  7.974    9.540    48.144   
 739.600  6.795    9.768    43.728   
 739.800  5.616    9.818    39.312   
 740.000  5.609    9.662    37.955   
 740.200  5.939    9.563    41.292   
 740.400  6.269    9.629    44.628   
 740.600  6.600    9.695    47.964   
 740.800  5.935    9.761    42.131   
 741.000  5.370    9.721    35.519   
 741.200  5.898    9.556    29.883   
 741.400  6.427    9.558    35.463   
 741.600  6.765    9.690    41.042   
 741.800  6.534    9.602    42.474   
 742.000  6.743    9.449    40.573   
 742.200  7.749    9.720    59.717   
 742.400  8.528    9.621    56.399   
 742.600  7.988    9.522    53.080   
 742.800  7.447    9.627    49.761   
 743.000  6.906    9.862    46.442   
 743.200  7.023    10.064   46.877   
 743.400  7.459    9.893    46.856   
 743.600  7.895    9.722    46.443   
 743.800  8.331    9.551    50.150   
 744.000  8.767    9.555    55.109   
 744.200  7.589    9.669    37.194   
 744.400  6.300    9.553    38.167   
 744.600  5.708    9.468    38.423   
 744.800  6.119    9.592    40.406   
 745.000  6.012    9.523    42.390   
 745.200  5.274    9.424    30.723   
 745.400  5.632    9.576    33.383   
 745.600  5.991    9.477    36.043   
 745.800  6.349    9.378    38.703   
 746.000  6.174    9.330    35.955   
 746.200  5.381    9.528    31.066   
 746.400  5.152    9.726    29.388   
 746.600  5.350    9.785    30.837   
 746.800  5.548    9.559    32.287   
 747.000  5.699    9.370    33.736   
 747.200  5.402    9.469    33.926   
 747.400  5.169    9.475    32.239   
 747.600  5.071    9.149    33.021   
 747.800  5.194    8.823    34.331   
 748.000  5.318    8.496    35.642   
 748.200  4.705    8.170    36.953   
 748.400  4.487    7.844    36.135   
 748.600  4.465    7.831    34.429   
 748.800  4.626    7.875    35.421   
 749.000  4.787    7.919    35.393   
 749.200  4.568    7.740    32.237   
 749.400  4.345    7.651    29.081   
 749.600  3.960    7.684    25.925   
 749.800  3.533    7.717    26.103   
 750.000  3.669    7.681    27.260   
 750.200  3.806    7.594    27.270   
 750.400  3.716    7.515    27.121   
 750.600  3.852    7.587    26.973   
 750.800  4.114    7.659    28.721   
 751.000  4.375    7.731    28.500   
 751.200  4.501    7.706    28.280   
 751.400  4.232    7.607    28.799   
 751.600  3.982    7.508    29.890   
 751.800  4.141    7.552    28.733   
 752.000  3.994    7.651    28.552   
 752.200  4.061    7.656    29.841   
 752.400  4.240    7.571    28.779   
 752.600  4.418    7.554    27.229   
 752.800  4.028    7.695    26.356   
 753.000  3.886    7.810    27.045   
 753.200  3.996    7.637    27.734   
 753.400  4.174    7.823    28.423   
 753.600  4.353    7.572    29.112   
 753.800  4.404    7.246    29.800   
 754.000  4.173    6.921    29.397   
 754.200  3.942    6.596    28.323   
 754.400  3.710    8.147    27.248   
 754.600  4.384    12.009   26.174   
 754.800  5.890    15.871   33.303   
 755.000  7.397    17.940   42.106   
 755.200  8.904    15.564   45.354   
 755.400  10.410   13.187   35.931   
 755.600  8.974    10.811   30.861   
 755.800  6.727    8.434    32.044   
 756.000  4.480    6.638    33.226   
 756.200  4.485    6.787    34.409   
 756.400  4.627    6.811    34.338   
 756.600  4.769    6.618    31.425   
 756.800  4.911    6.823    28.511   
 757.000  5.053    7.027    28.322   
 757.200  5.196    7.232    28.901   
 757.400  5.338    7.437    26.550   
 757.600  5.009    7.542    26.243   
 757.800  4.458    7.443    27.400   
 758.000  3.908    7.344    28.557   
 758.200  3.975    7.352    29.714   
 758.400  4.163    7.476    30.871   
 758.600  4.350    7.600    29.242   
 758.800  4.165    7.454    27.259   
 759.000  3.980    7.296    26.819   
 759.200  3.937    7.138    27.010   
 759.400  4.057    7.282    26.216   
 759.600  4.177    7.319    26.351   
 759.800  4.297    7.192    27.342   
 760.000  4.417    7.183    28.334   
 760.200  4.537    7.431    27.157   
 760.400  4.391    7.678    27.329   
 760.600  4.074    7.926    29.419   
 760.800  4.247    8.173    31.509   
 761.000  4.421    8.421    33.599   
 761.200  4.219    8.668    35.689   
 761.400  3.895    8.743    31.998   
 761.600  4.034    8.512    31.446   
 761.800  3.962    8.281    32.052   
 762.000  3.697    8.246    32.658   
 762.200  3.433    8.394    28.418   
 762.400  3.484    8.543    27.046   
 762.600  3.521    8.586    27.728   
 762.800  3.336    8.437    28.194   
 763.000  3.150    8.357    26.761   
 763.200  3.248    8.357    25.329   
 763.400  3.380    8.357    24.614   
 763.600  3.494    8.357    25.936   
 763.800  3.276    8.357    26.502   
 764.000  3.245    8.357    25.758   
 764.200  3.422    8.357    25.911   
 764.400  3.600    8.357    27.068   
 764.600  3.777    8.357    27.307   
 764.800  3.955    8.357    26.873   
 765.000  4.132    -99999.000 26.557   
 765.200  4.100    -99999.000 28.405   
 765.400  3.836    -99999.000 30.254   
 765.600  3.857    -99999.000 32.102   
 765.800  4.086    -99999.000 32.128   
 766.000  4.314    -99999.000 30.826   
 766.200  4.543    -99999.000 29.829   
 766.400  4.429    -99999.000 34.292   
 766.600  3.933    -99999.000 33.036   
 766.800  3.437    -99999.000 30.259   
 767.000  3.152    -99999.000 27.482   
 767.200  3.319    -99999.000 27.179   
 767.400  3.487    -99999.000 28.312   
 767.600  3.655    -99999.000 28.373   
 767.800  3.745    -99999.000 26.968   
 768.000  3.547    -99999.000 26.698   
 768.200  3.462    -99999.000 27.442   
 768.400  3.620    -99999.000 28.186   
 768.600  3.540    -99999.000 28.354   
 768.800  3.375    -99999.000 27.549   
 769.000  3.265    -99999.000 26.743   
